[
  {
    "id": "cfbd_149033",
    "name": "Dorial Green-Beckham",
    "position": "WR",
    "positionRaw": "WR",
    "stars": 5,
    "rating": 0.9997,
    "ranking": 1,
    "classYear": 2012,
    "hometown": "Springfield",
    "state": "MO",
    "country": "USA",
    "height": "6-6",
    "weight": 220,
    "lat": 37.2166779,
    "lng": -93.2920373,
    "school": "Hillcrest",
    "committedTo": "Missouri",
    "status": "committed",
    "source": "cfbd"
  },
  {
    "id": "cfbd_149034",
    "name": "Mario Edwards",
    "position": "DL",
    "positionRaw": "DT",
    "stars": 5,
    "rating": 0.9995,
    "ranking": 2,
    "classYear": 2012,
    "hometown": "Denton",
    "state": "TX",
    "country": "USA",
    "height": "6-3",
    "weight": 285,
    "lat": 33.2150386,
    "lng": -97.1330516,
    "school": "Ryan",
    "committedTo": "Florida State",
    "status": "committed",
    "source": "cfbd"
  },
  {
    "id": "cfbd_149035",
    "name": "D.J. Humphries",
    "position": "OL",
    "positionRaw": "OT",
    "stars": 5,
    "rating": 0.998,
    "ranking": 3,
    "classYear": 2012,
    "hometown": "Charlotte",
    "state": "NC",
    "country": "USA",
    "height": "6-5",
    "weight": 275,
    "lat": 35.2272,
    "lng": -80.843083,
    "school": "Mallard Creek",
    "committedTo": "Florida",
    "status": "committed",
    "source": "cfbd"
  },
  {
    "id": "cfbd_149036",
    "name": "Shaq Thompson",
    "position": "S",
    "positionRaw": "S",
    "stars": 5,
    "rating": 0.9977,
    "ranking": 4,
    "classYear": 2012,
    "hometown": "Sacramento",
    "state": "CA",
    "country": "USA",
    "height": "6-2",
    "weight": 210,
    "lat": 38.5815719,
    "lng": -121.4943996,
    "school": "Grant Union",
    "committedTo": "Washington",
    "status": "committed",
    "source": "cfbd"
  },
  {
    "id": "cfbd_149037",
    "name": "Noah Spence",
    "position": "EDGE",
    "positionRaw": "WDE",
    "stars": 5,
    "rating": 0.9974,
    "ranking": 5,
    "classYear": 2012,
    "hometown": "Harrisburg",
    "state": "PA",
    "country": "USA",
    "height": "6-3",
    "weight": 235,
    "lat": 40.2663107,
    "lng": -76.8861122,
    "school": "Bishop McDevitt",
    "committedTo": "Ohio State",
    "status": "committed",
    "source": "cfbd"
  },
  {
    "id": "cfbd_149038",
    "name": "Johnathan Gray",
    "position": "RB",
    "positionRaw": "RB",
    "stars": 5,
    "rating": 0.9973,
    "ranking": 6,
    "classYear": 2012,
    "hometown": "Aledo",
    "state": "TX",
    "country": "USA",
    "height": "5-11",
    "weight": 200,
    "lat": 32.69900905,
    "lng": -97.60396629774493,
    "school": "Aledo",
    "committedTo": "Texas",
    "status": "committed",
    "source": "cfbd"
  },
  {
    "id": "cfbd_149039",
    "name": "Landon Collins",
    "position": "S",
    "positionRaw": "S",
    "stars": 5,
    "rating": 0.9971,
    "ranking": 7,
    "classYear": 2012,
    "hometown": "Geismar",
    "state": "LA",
    "country": "USA",
    "height": "6-0",
    "weight": 210,
    "lat": 30.2043633,
    "lng": -91.0226013,
    "school": "Dutchtown",
    "committedTo": "Alabama",
    "status": "committed",
    "source": "cfbd"
  },
  {
    "id": "cfbd_149040",
    "name": "Stefon Diggs",
    "position": "WR",
    "positionRaw": "WR",
    "stars": 5,
    "rating": 0.9969,
    "ranking": 8,
    "classYear": 2012,
    "hometown": "Olney",
    "state": "MD",
    "country": "USA",
    "height": "6-1",
    "weight": 190,
    "lat": 39.1532123,
    "lng": -77.0668408,
    "school": "Our Lady of Good Counsel",
    "committedTo": "Maryland",
    "status": "committed",
    "source": "cfbd"
  },
  {
    "id": "cfbd_149041",
    "name": "Malcom Brown",
    "position": "DL",
    "positionRaw": "DT",
    "stars": 5,
    "rating": 0.9944,
    "ranking": 9,
    "classYear": 2012,
    "hometown": "Brenham",
    "state": "TX",
    "country": "USA",
    "height": "6-3",
    "weight": 300,
    "lat": 30.1668828,
    "lng": -96.3977442,
    "school": "Brenham",
    "committedTo": "Texas",
    "status": "committed",
    "source": "cfbd"
  },
  {
    "id": "cfbd_149042",
    "name": "Eddie Goldman",
    "position": "DL",
    "positionRaw": "DT",
    "stars": 5,
    "rating": 0.9943,
    "ranking": 10,
    "classYear": 2012,
    "hometown": "Washington",
    "state": "DC",
    "country": "USA",
    "height": "6-5",
    "weight": 305,
    "lat": 38.8949855,
    "lng": -77.0365708,
    "school": "Friendship Academy",
    "committedTo": "Florida State",
    "status": "committed",
    "source": "cfbd"
  },
  {
    "id": "cfbd_149043",
    "name": "Kyle Murphy",
    "position": "OL",
    "positionRaw": "OT",
    "stars": 5,
    "rating": 0.9937,
    "ranking": 11,
    "classYear": 2012,
    "hometown": "San Clemente",
    "state": "CA",
    "country": "USA",
    "height": "6-7",
    "weight": 270,
    "lat": 33.4270275,
    "lng": -117.6124179,
    "school": "San Clemente",
    "committedTo": "Stanford",
    "status": "committed",
    "source": "cfbd"
  },
  {
    "id": "cfbd_149044",
    "name": "Jonathan Bullard",
    "position": "EDGE",
    "positionRaw": "SDE",
    "stars": 5,
    "rating": 0.9924,
    "ranking": 12,
    "classYear": 2012,
    "hometown": "Shelby",
    "state": "NC",
    "country": "USA",
    "height": "6-4",
    "weight": 245,
    "lat": 35.2919489,
    "lng": -81.5402112,
    "school": "Crest",
    "committedTo": "Florida",
    "status": "committed",
    "source": "cfbd"
  },
  {
    "id": "cfbd_149045",
    "name": "Keith Marshall",
    "position": "RB",
    "positionRaw": "APB",
    "stars": 5,
    "rating": 0.9918,
    "ranking": 13,
    "classYear": 2012,
    "hometown": "Raleigh",
    "state": "NC",
    "country": "USA",
    "height": "5-11",
    "weight": 195,
    "lat": 35.7803977,
    "lng": -78.6390989,
    "school": "Millbrook",
    "committedTo": "Georgia",
    "status": "committed",
    "source": "cfbd"
  },
  {
    "id": "cfbd_149046",
    "name": "Arik Armstead",
    "position": "ATH",
    "positionRaw": "ATH",
    "stars": 5,
    "rating": 0.9917,
    "ranking": 14,
    "classYear": 2012,
    "hometown": "Elk Grove",
    "state": "CA",
    "country": "USA",
    "height": "6-8",
    "weight": 285,
    "lat": 38.4087993,
    "lng": -121.3716178,
    "school": "Pleasant Grove",
    "committedTo": "Oregon",
    "status": "committed",
    "source": "cfbd"
  },
  {
    "id": "cfbd_149047",
    "name": "John Theus",
    "position": "OL",
    "positionRaw": "OT",
    "stars": 5,
    "rating": 0.9915,
    "ranking": 15,
    "classYear": 2012,
    "hometown": "Jacksonville",
    "state": "FL",
    "country": "USA",
    "height": "6-5",
    "weight": 305,
    "lat": 30.3321838,
    "lng": -81.655651,
    "school": "The Bolles School",
    "committedTo": "Georgia",
    "status": "committed",
    "source": "cfbd"
  },
  {
    "id": "cfbd_149048",
    "name": "Jameis Winston",
    "position": "QB",
    "positionRaw": "DUAL",
    "stars": 5,
    "rating": 0.9915,
    "ranking": 16,
    "classYear": 2012,
    "hometown": "Hueytown",
    "state": "AL",
    "country": "USA",
    "height": "6-4",
    "weight": 190,
    "lat": 33.4512197,
    "lng": -86.9966606,
    "school": "Hueytown",
    "committedTo": "Florida State",
    "status": "committed",
    "source": "cfbd"
  },
  {
    "id": "cfbd_149049",
    "name": "Eddie Williams",
    "position": "ATH",
    "positionRaw": "ATH",
    "stars": 5,
    "rating": 0.9909,
    "ranking": 17,
    "classYear": 2012,
    "hometown": "Panama City Beach",
    "state": "FL",
    "country": "USA",
    "height": "6-2.5",
    "weight": 196,
    "lat": 30.1765914,
    "lng": -85.8054879,
    "school": "Arnold",
    "committedTo": "Alabama",
    "status": "committed",
    "source": "cfbd"
  },
  {
    "id": "cfbd_149050",
    "name": "Trey Williams",
    "position": "RB",
    "positionRaw": "APB",
    "stars": 5,
    "rating": 0.9901,
    "ranking": 18,
    "classYear": 2012,
    "hometown": "Houston",
    "state": "TX",
    "country": "USA",
    "height": "5-8",
    "weight": 175,
    "lat": 29.7589382,
    "lng": -95.3676974,
    "school": "Dekaney",
    "committedTo": "Texas A&M",
    "status": "committed",
    "source": "cfbd"
  },
  {
    "id": "cfbd_149051",
    "name": "Adolphus Washington",
    "position": "EDGE",
    "positionRaw": "WDE",
    "stars": 5,
    "rating": 0.9894,
    "ranking": 19,
    "classYear": 2012,
    "hometown": "Cincinnati",
    "state": "OH",
    "country": "USA",
    "height": "6-4",
    "weight": 245,
    "lat": 39.1014537,
    "lng": -84.5124602,
    "school": "Taft",
    "committedTo": "Ohio State",
    "status": "committed",
    "source": "cfbd"
  },
  {
    "id": "cfbd_149052",
    "name": "Duke Johnson",
    "position": "RB",
    "positionRaw": "APB",
    "stars": 5,
    "rating": 0.9894,
    "ranking": 20,
    "classYear": 2012,
    "hometown": "Miami",
    "state": "FL",
    "country": "USA",
    "height": "5-10",
    "weight": 175,
    "lat": 25.7742658,
    "lng": -80.1936589,
    "school": "Norland",
    "committedTo": "Miami",
    "status": "committed",
    "source": "cfbd"
  },
  {
    "id": "cfbd_149053",
    "name": "Darius Hamilton",
    "position": "EDGE",
    "positionRaw": "SDE",
    "stars": 5,
    "rating": 0.9892,
    "ranking": 21,
    "classYear": 2012,
    "hometown": "Ramsey",
    "state": "NJ",
    "country": "USA",
    "height": "6-4",
    "weight": 250,
    "lat": 41.0573188,
    "lng": -74.1409771,
    "school": "Don Bosco Prep",
    "committedTo": "Rutgers",
    "status": "committed",
    "source": "cfbd"
  },
  {
    "id": "cfbd_149054",
    "name": "Josh Harvey-Clemons",
    "position": "EDGE",
    "positionRaw": "OLB",
    "stars": 5,
    "rating": 0.989,
    "ranking": 22,
    "classYear": 2012,
    "hometown": "Valdosta",
    "state": "GA",
    "country": "USA",
    "height": "6-5",
    "weight": 200,
    "lat": 30.8327022,
    "lng": -83.2784851,
    "school": "Lowndes",
    "committedTo": "Georgia",
    "status": "committed",
    "source": "cfbd"
  },
  {
    "id": "cfbd_149055",
    "name": "Tracy Howard",
    "position": "CB",
    "positionRaw": "CB",
    "stars": 5,
    "rating": 0.9886,
    "ranking": 23,
    "classYear": 2012,
    "hometown": "Hollywood",
    "state": "FL",
    "country": "USA",
    "height": "5-11",
    "weight": 175,
    "lat": 26.0112014,
    "lng": -80.1494901,
    "school": "Miramar",
    "committedTo": "Miami",
    "status": "committed",
    "source": "cfbd"
  },
  {
    "id": "cfbd_149056",
    "name": "Ellis McCarthy",
    "position": "DL",
    "positionRaw": "DT",
    "stars": 5,
    "rating": 0.9881,
    "ranking": 24,
    "classYear": 2012,
    "hometown": "Monrovia",
    "state": "CA",
    "country": "USA",
    "height": "6-5",
    "weight": 315,
    "lat": 34.1483499,
    "lng": -118.0014517,
    "school": "Monrovia",
    "committedTo": "UCLA",
    "status": "committed",
    "source": "cfbd"
  },
  {
    "id": "cfbd_149057",
    "name": "Ronald Darby",
    "position": "CB",
    "positionRaw": "CB",
    "stars": 5,
    "rating": 0.9879,
    "ranking": 25,
    "classYear": 2012,
    "hometown": "Oxon Hill",
    "state": "MD",
    "country": "USA",
    "height": "5-11",
    "weight": 174,
    "lat": 38.8035961,
    "lng": -76.9896573,
    "school": "Potomac",
    "committedTo": "Florida State",
    "status": "committed",
    "source": "cfbd"
  },
  {
    "id": "cfbd_149058",
    "name": "Gunner Kiel",
    "position": "QB",
    "positionRaw": "PRO",
    "stars": 5,
    "rating": 0.9878,
    "ranking": 26,
    "classYear": 2012,
    "hometown": "Columbus",
    "state": "IN",
    "country": "USA",
    "height": "6-4",
    "weight": 210,
    "lat": 39.2014405,
    "lng": -85.9213796,
    "school": "Columbus East",
    "committedTo": "Notre Dame",
    "status": "committed",
    "source": "cfbd"
  },
  {
    "id": "cfbd_149059",
    "name": "T.J. Yeldon",
    "position": "RB",
    "positionRaw": "RB",
    "stars": 5,
    "rating": 0.9876,
    "ranking": 27,
    "classYear": 2012,
    "hometown": "Daphne",
    "state": "AL",
    "country": "USA",
    "height": "6-2",
    "weight": 205,
    "lat": 30.6035255,
    "lng": -87.9036047,
    "school": "Daphne",
    "committedTo": "Alabama",
    "status": "committed",
    "source": "cfbd"
  },
  {
    "id": "cfbd_149060",
    "name": "Isaac Seumalo",
    "position": "OL",
    "positionRaw": "OG",
    "stars": 5,
    "rating": 0.9876,
    "ranking": 28,
    "classYear": 2012,
    "hometown": "Corvallis",
    "state": "OR",
    "country": "USA",
    "height": "6-3",
    "weight": 280,
    "lat": 44.5645659,
    "lng": -123.2620435,
    "school": "Corvallis",
    "committedTo": "Oregon State",
    "status": "committed",
    "source": "cfbd"
  },
  {
    "id": "cfbd_149061",
    "name": "Chris Casher",
    "position": "EDGE",
    "positionRaw": "WDE",
    "stars": 5,
    "rating": 0.987,
    "ranking": 29,
    "classYear": 2012,
    "hometown": "Mobile",
    "state": "AL",
    "country": "USA",
    "height": "6-5",
    "weight": 240,
    "lat": 30.6943566,
    "lng": -88.0430541,
    "school": "WP Davidson",
    "committedTo": "Florida State",
    "status": "committed",
    "source": "cfbd"
  },
  {
    "id": "cfbd_149062",
    "name": "Nelson Agholor",
    "position": "ATH",
    "positionRaw": "ATH",
    "stars": 5,
    "rating": 0.9854,
    "ranking": 30,
    "classYear": 2012,
    "hometown": "Tampa",
    "state": "FL",
    "country": "USA",
    "height": "6-1",
    "weight": 185,
    "lat": 27.9477595,
    "lng": -82.458444,
    "school": "Berkeley Prep",
    "committedTo": "USC",
    "status": "committed",
    "source": "cfbd"
  },
  {
    "id": "cfbd_149063",
    "name": "Andrus Peat",
    "position": "OL",
    "positionRaw": "OT",
    "stars": 5,
    "rating": 0.9849,
    "ranking": 31,
    "classYear": 2012,
    "hometown": "Tempe",
    "state": "AZ",
    "country": "USA",
    "height": "6-7",
    "weight": 305,
    "lat": 33.4255056,
    "lng": -111.9400125,
    "school": "Corona del Sol",
    "committedTo": "Stanford",
    "status": "committed",
    "source": "cfbd"
  },
  {
    "id": "cfbd_149064",
    "name": "Rushel Shell",
    "position": "RB",
    "positionRaw": "RB",
    "stars": 5,
    "rating": 0.9849,
    "ranking": 32,
    "classYear": 2012,
    "hometown": "Aliquippa",
    "state": "PA",
    "country": "USA",
    "height": "6-0",
    "weight": 215,
    "lat": 40.6102386,
    "lng": -80.267726,
    "school": "Hopewell",
    "committedTo": "Pittsburgh",
    "status": "committed",
    "source": "cfbd"
  },
  {
    "id": "cfbd_149065",
    "name": "Thomas Johnson",
    "position": "WR",
    "positionRaw": "WR",
    "stars": 5,
    "rating": 0.9845,
    "ranking": 33,
    "classYear": 2012,
    "hometown": "Dallas",
    "state": "TX",
    "country": "USA",
    "height": "5-11",
    "weight": 175,
    "lat": 32.7762719,
    "lng": -96.7968559,
    "school": "Skyline",
    "committedTo": "Texas A&M",
    "status": "committed",
    "source": "cfbd"
  },
  {
    "id": "cfbd_149066",
    "name": "Jordan Jenkins",
    "position": "EDGE",
    "positionRaw": "WDE",
    "stars": 5,
    "rating": 0.9844,
    "ranking": 34,
    "classYear": 2012,
    "hometown": "Hamilton",
    "state": "GA",
    "country": "USA",
    "height": "6-3",
    "weight": 242,
    "lat": 32.7579107,
    "lng": -84.8749311,
    "school": "Harris County",
    "committedTo": "Georgia",
    "status": "committed",
    "source": "cfbd"
  },
  {
    "id": "cfbd_149067",
    "name": "Channing Ward",
    "position": "EDGE",
    "positionRaw": "WDE",
    "stars": 5,
    "rating": 0.9842,
    "ranking": 35,
    "classYear": 2012,
    "hometown": "Aberdeen",
    "state": "MS",
    "country": "USA",
    "height": "6-3",
    "weight": 250,
    "lat": 33.8251139,
    "lng": -88.5436553,
    "school": "Aberdeen",
    "committedTo": "Ole Miss",
    "status": "committed",
    "source": "cfbd"
  },
  {
    "id": "cfbd_149068",
    "name": "Dante Fowler",
    "position": "EDGE",
    "positionRaw": "WDE",
    "stars": 5,
    "rating": 0.9842,
    "ranking": 36,
    "classYear": 2012,
    "hometown": "St. Petersburg",
    "state": "FL",
    "country": "USA",
    "height": "6-3",
    "weight": 258,
    "lat": 27.7703796,
    "lng": -82.6695085,
    "school": "Lakewood",
    "committedTo": "Florida",
    "status": "committed",
    "source": "cfbd"
  },
  {
    "id": "cfbd_149069",
    "name": "Mario Pender",
    "position": "RB",
    "positionRaw": "RB",
    "stars": 5,
    "rating": 0.9836,
    "ranking": 37,
    "classYear": 2012,
    "hometown": "Cape Coral",
    "state": "FL",
    "country": "USA",
    "height": "5-11",
    "weight": 194,
    "lat": 26.6059432,
    "lng": -81.9806771,
    "school": "Island Coast",
    "committedTo": "Florida State",
    "status": "committed",
    "source": "cfbd"
  },
  {
    "id": "cfbd_149070",
    "name": "Joshua Garnett",
    "position": "OL",
    "positionRaw": "OG",
    "stars": 4,
    "rating": 0.9824,
    "ranking": 38,
    "classYear": 2012,
    "hometown": "Puyallup",
    "state": "WA",
    "country": "USA",
    "height": "6-5",
    "weight": 285,
    "lat": 47.1849009,
    "lng": -122.2921406,
    "school": "Puyallup",
    "committedTo": "Stanford",
    "status": "committed",
    "source": "cfbd"
  },
  {
    "id": "cfbd_149071",
    "name": "Devin Fuller",
    "position": "ATH",
    "positionRaw": "ATH",
    "stars": 4,
    "rating": 0.9812,
    "ranking": 39,
    "classYear": 2012,
    "hometown": "Westwood",
    "state": "NJ",
    "country": "USA",
    "height": "6-0",
    "weight": 185,
    "lat": 40.9912087,
    "lng": -74.0326395,
    "school": "Northern Valley Regional - Old Tappan",
    "committedTo": "UCLA",
    "status": "committed",
    "source": "cfbd"
  },
  {
    "id": "cfbd_149072",
    "name": "Reggie Ragland",
    "position": "LB",
    "positionRaw": "ILB",
    "stars": 4,
    "rating": 0.9808,
    "ranking": 40,
    "classYear": 2012,
    "hometown": "Madison",
    "state": "AL",
    "country": "USA",
    "height": "6-3",
    "weight": 245,
    "lat": 34.6928726,
    "lng": -86.7511427,
    "school": "Bob Jones",
    "committedTo": "Alabama",
    "status": "committed",
    "source": "cfbd"
  },
  {
    "id": "cfbd_149073",
    "name": "Shaq Roland",
    "position": "ATH",
    "positionRaw": "ATH",
    "stars": 4,
    "rating": 0.9808,
    "ranking": 41,
    "classYear": 2012,
    "hometown": "Lexington",
    "state": "SC",
    "country": "USA",
    "height": "6-2",
    "weight": 204,
    "lat": 33.98390015,
    "lng": -81.22601082617007,
    "school": "Lexington",
    "committedTo": "South Carolina",
    "status": "committed",
    "source": "cfbd"
  },
  {
    "id": "cfbd_149074",
    "name": "Deontay Greenberry",
    "position": "WR",
    "positionRaw": "WR",
    "stars": 4,
    "rating": 0.9803,
    "ranking": 42,
    "classYear": 2012,
    "hometown": "Fresno",
    "state": "CA",
    "country": "USA",
    "height": "6-3",
    "weight": 184,
    "lat": 36.7295295,
    "lng": -119.70886126075588,
    "school": "Washington Union",
    "committedTo": "Houston",
    "status": "committed",
    "source": "cfbd"
  },
  {
    "id": "cfbd_149075",
    "name": "Eli Harold",
    "position": "EDGE",
    "positionRaw": "WDE",
    "stars": 4,
    "rating": 0.9802,
    "ranking": 43,
    "classYear": 2012,
    "hometown": "Virginia Beach",
    "state": "VA",
    "country": "USA",
    "height": "6-4",
    "weight": 220,
    "lat": 36.8529841,
    "lng": -75.9774183,
    "school": "Ocean Lakes",
    "committedTo": "Virginia",
    "status": "committed",
    "source": "cfbd"
  },
  {
    "id": "cfbd_149076",
    "name": "Cyrus Jones",
    "position": "ATH",
    "positionRaw": "ATH",
    "stars": 4,
    "rating": 0.9787,
    "ranking": 44,
    "classYear": 2012,
    "hometown": "Baltimore",
    "state": "MD",
    "country": "USA",
    "height": "5-10",
    "weight": 195,
    "lat": 39.2908816,
    "lng": -76.610759,
    "school": "Gilman",
    "committedTo": "Alabama",
    "status": "committed",
    "source": "cfbd"
  },
  {
    "id": "cfbd_149077",
    "name": "Amari Cooper",
    "position": "WR",
    "positionRaw": "WR",
    "stars": 4,
    "rating": 0.9776,
    "ranking": 45,
    "classYear": 2012,
    "hometown": "Miami",
    "state": "FL",
    "country": "USA",
    "height": "6-1",
    "weight": 183,
    "lat": 25.7742658,
    "lng": -80.1936589,
    "school": "Northwestern",
    "committedTo": "Alabama",
    "status": "committed",
    "source": "cfbd"
  },
  {
    "id": "cfbd_149078",
    "name": "Kyle Kalis",
    "position": "OL",
    "positionRaw": "OG",
    "stars": 4,
    "rating": 0.9775,
    "ranking": 46,
    "classYear": 2012,
    "hometown": "Lakewood",
    "state": "OH",
    "country": "USA",
    "height": "6-5",
    "weight": 300,
    "lat": 41.4819932,
    "lng": -81.7981908,
    "school": "St. Edward",
    "committedTo": "Michigan",
    "status": "committed",
    "source": "cfbd"
  },
  {
    "id": "cfbd_149079",
    "name": "Mike Davis",
    "position": "RB",
    "positionRaw": "RB",
    "stars": 4,
    "rating": 0.9772,
    "ranking": 47,
    "classYear": 2012,
    "hometown": "Stone Mountain",
    "state": "GA",
    "country": "USA",
    "height": "5-11",
    "weight": 195,
    "lat": 33.8080924,
    "lng": -84.1706273,
    "school": "Stephenson",
    "committedTo": "South Carolina",
    "status": "committed",
    "source": "cfbd"
  },
  {
    "id": "cfbd_149080",
    "name": "Chris Black",
    "position": "WR",
    "positionRaw": "WR",
    "stars": 4,
    "rating": 0.9772,
    "ranking": 48,
    "classYear": 2012,
    "hometown": "Jacksonville",
    "state": "FL",
    "country": "USA",
    "height": "5-11",
    "weight": 175,
    "lat": 30.3321838,
    "lng": -81.655651,
    "school": "First Coast",
    "committedTo": "Alabama",
    "status": "committed",
    "source": "cfbd"
  },
  {
    "id": "cfbd_149081",
    "name": "Zach Kline",
    "position": "QB",
    "positionRaw": "PRO",
    "stars": 4,
    "rating": 0.9771,
    "ranking": 49,
    "classYear": 2012,
    "hometown": "Danville",
    "state": "CA",
    "country": "USA",
    "height": "6-2",
    "weight": 190,
    "lat": 37.8215929,
    "lng": -121.9999606,
    "school": "San Ramon Valley",
    "committedTo": "California",
    "status": "committed",
    "source": "cfbd"
  },
  {
    "id": "cfbd_149082",
    "name": "Tee Shepard",
    "position": "CB",
    "positionRaw": "CB",
    "stars": 4,
    "rating": 0.9763,
    "ranking": 50,
    "classYear": 2012,
    "hometown": "Fresno",
    "state": "CA",
    "country": "USA",
    "height": "6-0",
    "weight": 173,
    "lat": 36.7295295,
    "lng": -119.70886126075588,
    "school": "Washington Union",
    "committedTo": "Notre Dame",
    "status": "committed",
    "source": "cfbd"
  },
  {
    "id": "cfbd_149083",
    "name": "Leonard Williams",
    "position": "EDGE",
    "positionRaw": "SDE",
    "stars": 4,
    "rating": 0.9758,
    "ranking": 51,
    "classYear": 2012,
    "hometown": "Daytona Beach",
    "state": "FL",
    "country": "USA",
    "height": "6-5",
    "weight": 265,
    "lat": 29.2108147,
    "lng": -81.0228331,
    "school": "Mainland",
    "committedTo": "USC",
    "status": "committed",
    "source": "cfbd"
  },
  {
    "id": "cfbd_149084",
    "name": "Kennedy Estelle",
    "position": "OL",
    "positionRaw": "OT",
    "stars": 4,
    "rating": 0.9757,
    "ranking": 52,
    "classYear": 2012,
    "hometown": "Pearland",
    "state": "TX",
    "country": "USA",
    "height": "6-7",
    "weight": 300,
    "lat": 29.5639758,
    "lng": -95.2864299,
    "school": "Dawson",
    "committedTo": "Texas",
    "status": "committed",
    "source": "cfbd"
  },
  {
    "id": "cfbd_149085",
    "name": "Jonathan Taylor",
    "position": "DL",
    "positionRaw": "DT",
    "stars": 4,
    "rating": 0.9749,
    "ranking": 53,
    "classYear": 2012,
    "hometown": "Millen",
    "state": "GA",
    "country": "USA",
    "height": "6-4",
    "weight": 317,
    "lat": 32.8040512,
    "lng": -81.9492812,
    "school": "Jenkins County",
    "committedTo": "Georgia",
    "status": "committed",
    "source": "cfbd"
  },
  {
    "id": "cfbd_149086",
    "name": "Curtis Riser",
    "position": "OL",
    "positionRaw": "OG",
    "stars": 4,
    "rating": 0.9737,
    "ranking": 54,
    "classYear": 2012,
    "hometown": "DeSoto",
    "state": "TX",
    "country": "USA",
    "height": "6-4",
    "weight": 285,
    "lat": 32.6061241,
    "lng": -96.865612653687,
    "school": "DeSoto",
    "committedTo": "Texas",
    "status": "committed",
    "source": "cfbd"
  },
  {
    "id": "cfbd_149087",
    "name": "Ondre Pipkins",
    "position": "DL",
    "positionRaw": "DT",
    "stars": 4,
    "rating": 0.9735,
    "ranking": 55,
    "classYear": 2012,
    "hometown": "Kansas City",
    "state": "MO",
    "country": "USA",
    "height": "6-3",
    "weight": 305,
    "lat": 39.100105,
    "lng": -94.5781416,
    "school": "Park Hill",
    "committedTo": "Michigan",
    "status": "committed",
    "source": "cfbd"
  },
  {
    "id": "cfbd_149088",
    "name": "Brian Poole",
    "position": "S",
    "positionRaw": "S",
    "stars": 4,
    "rating": 0.9734,
    "ranking": 56,
    "classYear": 2012,
    "hometown": "Bradenton",
    "state": "FL",
    "country": "USA",
    "height": "5-10",
    "weight": 192,
    "lat": 27.4989278,
    "lng": -82.5748194,
    "school": "Southeast",
    "committedTo": "Florida",
    "status": "committed",
    "source": "cfbd"
  },
  {
    "id": "cfbd_149089",
    "name": "DaVonte' Neal",
    "position": "ATH",
    "positionRaw": "ATH",
    "stars": 4,
    "rating": 0.9732,
    "ranking": 57,
    "classYear": 2012,
    "hometown": "Paradise Valley",
    "state": "AZ",
    "country": "USA",
    "height": "5-9",
    "weight": 170,
    "lat": 33.5428006,
    "lng": -111.9556001,
    "school": "Central",
    "committedTo": "Notre Dame",
    "status": "committed",
    "source": "cfbd"
  },
  {
    "id": "cfbd_149090",
    "name": "Noor Davis",
    "position": "EDGE",
    "positionRaw": "OLB",
    "stars": 4,
    "rating": 0.9729,
    "ranking": 58,
    "classYear": 2012,
    "hometown": "Leesburg",
    "state": "FL",
    "country": "USA",
    "height": "6-4",
    "weight": 233,
    "lat": 28.810823,
    "lng": -81.8778582,
    "school": "Leesburg",
    "committedTo": "Stanford",
    "status": "committed",
    "source": "cfbd"
  },
  {
    "id": "cfbd_149091",
    "name": "Jessamen Dunker",
    "position": "OL",
    "positionRaw": "OG",
    "stars": 4,
    "rating": 0.9727,
    "ranking": 59,
    "classYear": 2012,
    "hometown": "Boynton Beach",
    "state": "FL",
    "country": "USA",
    "height": "6-5",
    "weight": 315,
    "lat": 26.5256179,
    "lng": -80.0666026,
    "school": "Boynton Beach Community",
    "committedTo": "Florida",
    "status": "committed",
    "source": "cfbd"
  },
  {
    "id": "cfbd_149092",
    "name": "Jabari Ruffin",
    "position": "EDGE",
    "positionRaw": "OLB",
    "stars": 4,
    "rating": 0.9725,
    "ranking": 60,
    "classYear": 2012,
    "hometown": "Downey",
    "state": "CA",
    "country": "USA",
    "height": "6-3",
    "weight": 245,
    "lat": 33.942215,
    "lng": -118.1235646,
    "school": "Downey",
    "committedTo": "USC",
    "status": "committed",
    "source": "cfbd"
  },
  {
    "id": "cfbd_149093",
    "name": "Max Tuerk",
    "position": "OL",
    "positionRaw": "OT",
    "stars": 4,
    "rating": 0.9703,
    "ranking": 61,
    "classYear": 2012,
    "hometown": "Rancho Santa Margarita",
    "state": "CA",
    "country": "USA",
    "height": "6-6",
    "weight": 254,
    "lat": 33.6408845,
    "lng": -117.6029341,
    "school": "Santa Margarita Catholic",
    "committedTo": "USC",
    "status": "committed",
    "source": "cfbd"
  },
  {
    "id": "cfbd_149094",
    "name": "Zach Banner",
    "position": "OL",
    "positionRaw": "OT",
    "stars": 4,
    "rating": 0.9703,
    "ranking": 62,
    "classYear": 2012,
    "hometown": "Lakewood",
    "state": "WA",
    "country": "USA",
    "height": "6-9",
    "weight": 330,
    "lat": 47.1714085,
    "lng": -122.5164,
    "school": "Lakes",
    "committedTo": "USC",
    "status": "committed",
    "source": "cfbd"
  },
  {
    "id": "cfbd_149095",
    "name": "Geno Smith",
    "position": "CB",
    "positionRaw": "CB",
    "stars": 4,
    "rating": 0.9702,
    "ranking": 63,
    "classYear": 2012,
    "hometown": "Atlanta",
    "state": "GA",
    "country": "USA",
    "height": "5-11.5",
    "weight": 185,
    "lat": 33.7490987,
    "lng": -84.3901849,
    "school": "St. Pius X",
    "committedTo": "Alabama",
    "status": "committed",
    "source": "cfbd"
  },
  {
    "id": "cfbd_149096",
    "name": "Javonte Magee",
    "position": "DL",
    "positionRaw": "DT",
    "stars": 4,
    "rating": 0.97,
    "ranking": 64,
    "classYear": 2012,
    "hometown": "San Antonio",
    "state": "TX",
    "country": "USA",
    "height": "6-6",
    "weight": 264,
    "lat": 29.4246002,
    "lng": -98.4951405,
    "school": "Sam Houston",
    "committedTo": "Baylor",
    "status": "committed",
    "source": "cfbd"
  },
  {
    "id": "cfbd_149097",
    "name": "Yuri Wright",
    "position": "CB",
    "positionRaw": "CB",
    "stars": 4,
    "rating": 0.969,
    "ranking": 65,
    "classYear": 2012,
    "hometown": "Ramsey",
    "state": "NJ",
    "country": "USA",
    "height": "6-2",
    "weight": 180,
    "lat": 41.0573188,
    "lng": -74.1409771,
    "school": "Don Bosco Prep",
    "committedTo": "Colorado",
    "status": "committed",
    "source": "cfbd"
  },
  {
    "id": "cfbd_149098",
    "name": "Alex Carter",
    "position": "S",
    "positionRaw": "S",
    "stars": 4,
    "rating": 0.9689,
    "ranking": 66,
    "classYear": 2012,
    "hometown": "Ashburn",
    "state": "VA",
    "country": "USA",
    "height": "6-1",
    "weight": 182,
    "lat": 39.0437192,
    "lng": -77.4874899,
    "school": "Briar Woods",
    "committedTo": "Stanford",
    "status": "committed",
    "source": "cfbd"
  },
  {
    "id": "cfbd_149099",
    "name": "Ifeadi Odenigbo",
    "position": "EDGE",
    "positionRaw": "OLB",
    "stars": 4,
    "rating": 0.9688,
    "ranking": 67,
    "classYear": 2012,
    "hometown": "Dayton",
    "state": "OH",
    "country": "USA",
    "height": "6-3",
    "weight": 212,
    "lat": 39.7589478,
    "lng": -84.1916069,
    "school": "Centerville",
    "committedTo": "Northwestern",
    "status": "committed",
    "source": "cfbd"
  },
  {
    "id": "cfbd_149100",
    "name": "Ukeme Eligwe",
    "position": "EDGE",
    "positionRaw": "OLB",
    "stars": 4,
    "rating": 0.9683,
    "ranking": 68,
    "classYear": 2012,
    "hometown": "Stone Mountain",
    "state": "GA",
    "country": "USA",
    "height": "6-3",
    "weight": 225,
    "lat": 33.8080924,
    "lng": -84.1706273,
    "school": "Stone Mountain",
    "committedTo": "Florida State",
    "status": "committed",
    "source": "cfbd"
  },
  {
    "id": "cfbd_149101",
    "name": "Cayleb Jones",
    "position": "WR",
    "positionRaw": "WR",
    "stars": 4,
    "rating": 0.9681,
    "ranking": 69,
    "classYear": 2012,
    "hometown": "Austin",
    "state": "TX",
    "country": "USA",
    "height": "6-3",
    "weight": 198,
    "lat": 30.2711286,
    "lng": -97.7436995,
    "school": "Austin",
    "committedTo": "Texas",
    "status": "committed",
    "source": "cfbd"
  },
  {
    "id": "cfbd_149102",
    "name": "Jordan Simmons",
    "position": "OL",
    "positionRaw": "OG",
    "stars": 4,
    "rating": 0.9668,
    "ranking": 70,
    "classYear": 2012,
    "hometown": "Encino",
    "state": "CA",
    "country": "USA",
    "height": "6-4",
    "weight": 330,
    "lat": 34.1591324,
    "lng": -118.5016166,
    "school": "Crespi",
    "committedTo": "USC",
    "status": "committed",
    "source": "cfbd"
  },
  {
    "id": "cfbd_149103",
    "name": "Carlos Watkins",
    "position": "DL",
    "positionRaw": "DT",
    "stars": 4,
    "rating": 0.9666,
    "ranking": 71,
    "classYear": 2012,
    "hometown": "Forest City",
    "state": "NC",
    "country": "USA",
    "height": "6-4",
    "weight": 290,
    "lat": 35.3340108,
    "lng": -81.8651028,
    "school": "Chase",
    "committedTo": "Clemson",
    "status": "committed",
    "source": "cfbd"
  },
  {
    "id": "cfbd_149104",
    "name": "LaDarrell McNeil",
    "position": "S",
    "positionRaw": "S",
    "stars": 4,
    "rating": 0.9663,
    "ranking": 72,
    "classYear": 2012,
    "hometown": "Dallas",
    "state": "TX",
    "country": "USA",
    "height": "6-1",
    "weight": 186,
    "lat": 32.7762719,
    "lng": -96.7968559,
    "school": "A Maceo Smith",
    "committedTo": null,
    "status": "uncommitted",
    "source": "cfbd"
  },
  {
    "id": "cfbd_149105",
    "name": "Todd Gurley",
    "position": "RB",
    "positionRaw": "RB",
    "stars": 4,
    "rating": 0.9654,
    "ranking": 73,
    "classYear": 2012,
    "hometown": "Tarboro",
    "state": "NC",
    "country": "USA",
    "height": "6-1",
    "weight": 209,
    "lat": 35.8968236,
    "lng": -77.5358049,
    "school": "Tarboro",
    "committedTo": "Georgia",
    "status": "committed",
    "source": "cfbd"
  },
  {
    "id": "cfbd_149106",
    "name": "Avery Young",
    "position": "OL",
    "positionRaw": "OT",
    "stars": 4,
    "rating": 0.965,
    "ranking": 74,
    "classYear": 2012,
    "hometown": "Palm Beach Gardens",
    "state": "FL",
    "country": "USA",
    "height": "6-6",
    "weight": 281,
    "lat": 26.8418256,
    "lng": -80.13590694666684,
    "school": "Palm Beach Gardens",
    "committedTo": "Auburn",
    "status": "committed",
    "source": "cfbd"
  },
  {
    "id": "cfbd_149107",
    "name": "Alex Ross",
    "position": "RB",
    "positionRaw": "RB",
    "stars": 4,
    "rating": 0.9647,
    "ranking": 75,
    "classYear": 2012,
    "hometown": "Jenks",
    "state": "OK",
    "country": "USA",
    "height": "6-2",
    "weight": 213,
    "lat": 36.0228734,
    "lng": -95.9683278,
    "school": "Jenks",
    "committedTo": "Oklahoma",
    "status": "committed",
    "source": "cfbd"
  },
  {
    "id": "cfbd_149108",
    "name": "Joe Bolden",
    "position": "LB",
    "positionRaw": "ILB",
    "stars": 4,
    "rating": 0.9646,
    "ranking": 76,
    "classYear": 2012,
    "hometown": "Cincinnati",
    "state": "OH",
    "country": "USA",
    "height": "6-3",
    "weight": 220,
    "lat": 39.1014537,
    "lng": -84.5124602,
    "school": "Colerain",
    "committedTo": "Michigan",
    "status": "committed",
    "source": "cfbd"
  },
  {
    "id": "cfbd_149109",
    "name": "Kent Taylor",
    "position": "TE",
    "positionRaw": "TE",
    "stars": 4,
    "rating": 0.9635,
    "ranking": 77,
    "classYear": 2012,
    "hometown": "Land O Lakes",
    "state": "FL",
    "country": "USA",
    "height": "6-5",
    "weight": 210,
    "lat": 28.2188992,
    "lng": -82.4575938,
    "school": "Land O' Lakes",
    "committedTo": "Florida",
    "status": "committed",
    "source": "cfbd"
  },
  {
    "id": "cfbd_149110",
    "name": "Ryan Anderson",
    "position": "EDGE",
    "positionRaw": "OLB",
    "stars": 4,
    "rating": 0.9634,
    "ranking": 78,
    "classYear": 2012,
    "hometown": "Daphne",
    "state": "AL",
    "country": "USA",
    "height": "6-3",
    "weight": 250,
    "lat": 30.6035255,
    "lng": -87.9036047,
    "school": "Daphne",
    "committedTo": "Alabama",
    "status": "committed",
    "source": "cfbd"
  },
  {
    "id": "cfbd_149111",
    "name": "Germone Hopper",
    "position": "WR",
    "positionRaw": "WR",
    "stars": 4,
    "rating": 0.9632,
    "ranking": 79,
    "classYear": 2012,
    "hometown": "Charlotte",
    "state": "NC",
    "country": "USA",
    "height": "5-11",
    "weight": 175,
    "lat": 35.2272,
    "lng": -80.843083,
    "school": "Phillip O. Berry Academy",
    "committedTo": "Clemson",
    "status": "committed",
    "source": "cfbd"
  },
  {
    "id": "cfbd_149112",
    "name": "Durron Neal",
    "position": "WR",
    "positionRaw": "WR",
    "stars": 4,
    "rating": 0.9629,
    "ranking": 80,
    "classYear": 2012,
    "hometown": "St. Louis",
    "state": "MO",
    "country": "USA",
    "height": "6-1",
    "weight": 180,
    "lat": 38.6268039,
    "lng": -90.1994097,
    "school": "DeSmet",
    "committedTo": "Oklahoma",
    "status": "committed",
    "source": "cfbd"
  },
  {
    "id": "cfbd_149113",
    "name": "Erik Magnuson",
    "position": "OL",
    "positionRaw": "OT",
    "stars": 4,
    "rating": 0.9624,
    "ranking": 81,
    "classYear": 2012,
    "hometown": "Encinitas",
    "state": "CA",
    "country": "USA",
    "height": "6-6",
    "weight": 275,
    "lat": 33.0369867,
    "lng": -117.2919818,
    "school": "La Costa Canyon",
    "committedTo": "Michigan",
    "status": "committed",
    "source": "cfbd"
  },
  {
    "id": "cfbd_149114",
    "name": "Bryce Treggs",
    "position": "WR",
    "positionRaw": "WR",
    "stars": 4,
    "rating": 0.9621,
    "ranking": 82,
    "classYear": 2012,
    "hometown": "Bellflower",
    "state": "CA",
    "country": "USA",
    "height": "5-11",
    "weight": 170,
    "lat": 33.8825705,
    "lng": -118.1167679,
    "school": "St. John Bosco",
    "committedTo": "California",
    "status": "committed",
    "source": "cfbd"
  },
  {
    "id": "cfbd_149115",
    "name": "Tommy Schutt",
    "position": "DL",
    "positionRaw": "DT",
    "stars": 4,
    "rating": 0.9619,
    "ranking": 83,
    "classYear": 2012,
    "hometown": "Glen Ellyn",
    "state": "IL",
    "country": "USA",
    "height": "6-2",
    "weight": 300,
    "lat": 41.8775293,
    "lng": -88.0670118,
    "school": "Glenbard West",
    "committedTo": "Ohio State",
    "status": "committed",
    "source": "cfbd"
  },
  {
    "id": "cfbd_149116",
    "name": "Barry J. Sanders",
    "position": "RB",
    "positionRaw": "APB",
    "stars": 4,
    "rating": 0.9612,
    "ranking": 84,
    "classYear": 2012,
    "hometown": "Oklahoma City",
    "state": "OK",
    "country": "USA",
    "height": "5-9",
    "weight": 180,
    "lat": 35.4729886,
    "lng": -97.5170536,
    "school": "Heritage Hall",
    "committedTo": "Stanford",
    "status": "committed",
    "source": "cfbd"
  },
  {
    "id": "cfbd_149117",
    "name": "Ricky Parks",
    "position": "TE",
    "positionRaw": "TE",
    "stars": 4,
    "rating": 0.9609,
    "ranking": 85,
    "classYear": 2012,
    "hometown": "Hogansville",
    "state": "GA",
    "country": "USA",
    "height": "6-4",
    "weight": 235,
    "lat": 33.1731769,
    "lng": -84.914936,
    "school": "Callaway",
    "committedTo": "Auburn",
    "status": "committed",
    "source": "cfbd"
  },
  {
    "id": "cfbd_149118",
    "name": "Bralon Addison",
    "position": "WR",
    "positionRaw": "WR",
    "stars": 4,
    "rating": 0.9602,
    "ranking": 86,
    "classYear": 2012,
    "hometown": "Missouri City",
    "state": "TX",
    "country": "USA",
    "height": "5-10",
    "weight": 182,
    "lat": 29.6185669,
    "lng": -95.5377215,
    "school": "Hightower",
    "committedTo": "Oregon",
    "status": "committed",
    "source": "cfbd"
  },
  {
    "id": "cfbd_149119",
    "name": "Elijah Shumate",
    "position": "S",
    "positionRaw": "S",
    "stars": 4,
    "rating": 0.9595,
    "ranking": 87,
    "classYear": 2012,
    "hometown": "Ramsey",
    "state": "NJ",
    "country": "USA",
    "height": "6-1",
    "weight": 185,
    "lat": 41.0573188,
    "lng": -74.1409771,
    "school": "Don Bosco Prep",
    "committedTo": "Notre Dame",
    "status": "committed",
    "source": "cfbd"
  },
  {
    "id": "cfbd_149120",
    "name": "Aaron Burbridge",
    "position": "WR",
    "positionRaw": "WR",
    "stars": 4,
    "rating": 0.959,
    "ranking": 88,
    "classYear": 2012,
    "hometown": "Farmington",
    "state": "MI",
    "country": "USA",
    "height": "6-1",
    "weight": 190,
    "lat": 42.4644795,
    "lng": -83.3763219,
    "school": "Harrison",
    "committedTo": "Michigan State",
    "status": "committed",
    "source": "cfbd"
  },
  {
    "id": "cfbd_149121",
    "name": "Se'Von Pittman",
    "position": "EDGE",
    "positionRaw": "WDE",
    "stars": 4,
    "rating": 0.9582,
    "ranking": 89,
    "classYear": 2012,
    "hometown": "Canton",
    "state": "OH",
    "country": "USA",
    "height": "6-5",
    "weight": 235,
    "lat": 40.7989522,
    "lng": -81.3784445,
    "school": "McKinley",
    "committedTo": "Ohio State",
    "status": "committed",
    "source": "cfbd"
  },
  {
    "id": "cfbd_149122",
    "name": "Kwon Alexander",
    "position": "EDGE",
    "positionRaw": "OLB",
    "stars": 4,
    "rating": 0.9572,
    "ranking": 91,
    "classYear": 2012,
    "hometown": "Oxford",
    "state": "AL",
    "country": "USA",
    "height": "6-2",
    "weight": 210,
    "lat": 33.5853695,
    "lng": -85.91428175037092,
    "school": "Oxford",
    "committedTo": "LSU",
    "status": "committed",
    "source": "cfbd"
  },
  {
    "id": "cfbd_149123",
    "name": "Travis Blanks",
    "position": "S",
    "positionRaw": "S",
    "stars": 4,
    "rating": 0.9567,
    "ranking": 92,
    "classYear": 2012,
    "hometown": "Tallahassee",
    "state": "FL",
    "country": "USA",
    "height": "6-1",
    "weight": 195,
    "lat": 30.4380832,
    "lng": -84.2809332,
    "school": "North Florida Christian",
    "committedTo": "Clemson",
    "status": "committed",
    "source": "cfbd"
  },
  {
    "id": "cfbd_149124",
    "name": "Aziz Shittu",
    "position": "DL",
    "positionRaw": "DT",
    "stars": 4,
    "rating": 0.9566,
    "ranking": 93,
    "classYear": 2012,
    "hometown": "Atwater",
    "state": "CA",
    "country": "USA",
    "height": "6-3",
    "weight": 275,
    "lat": 37.3477174,
    "lng": -120.609084,
    "school": "Buhach Colony",
    "committedTo": "Stanford",
    "status": "committed",
    "source": "cfbd"
  },
  {
    "id": "cfbd_149125",
    "name": "Bri'onte Dunn",
    "position": "RB",
    "positionRaw": "RB",
    "stars": 4,
    "rating": 0.9564,
    "ranking": 94,
    "classYear": 2012,
    "hometown": "Canton",
    "state": "OH",
    "country": "USA",
    "height": "6-2",
    "weight": 218,
    "lat": 40.7989522,
    "lng": -81.3784445,
    "school": "GlenOak",
    "committedTo": "Ohio State",
    "status": "committed",
    "source": "cfbd"
  },
  {
    "id": "cfbd_149126",
    "name": "Shiro Davis",
    "position": "EDGE",
    "positionRaw": "OLB",
    "stars": 4,
    "rating": 0.9563,
    "ranking": 95,
    "classYear": 2012,
    "hometown": "Shreveport",
    "state": "LA",
    "country": "USA",
    "height": "6-3",
    "weight": 220,
    "lat": 32.5221828,
    "lng": -93.7651944,
    "school": "Woodlawn",
    "committedTo": "Texas",
    "status": "committed",
    "source": "cfbd"
  },
  {
    "id": "cfbd_149127",
    "name": "JaQuay Savage",
    "position": "WR",
    "positionRaw": "WR",
    "stars": 4,
    "rating": 0.9557,
    "ranking": 96,
    "classYear": 2012,
    "hometown": "Tyrone",
    "state": "GA",
    "country": "USA",
    "height": "6-4",
    "weight": 200,
    "lat": 33.4713249,
    "lng": -84.5972005,
    "school": "Sandy Creek",
    "committedTo": "Auburn",
    "status": "committed",
    "source": "cfbd"
  },
  {
    "id": "cfbd_149128",
    "name": "Jordan Diamond",
    "position": "OL",
    "positionRaw": "OT",
    "stars": 4,
    "rating": 0.9557,
    "ranking": 97,
    "classYear": 2012,
    "hometown": "Chicago",
    "state": "IL",
    "country": "USA",
    "height": "6-6",
    "weight": 290,
    "lat": 41.8755616,
    "lng": -87.6244212,
    "school": "Simeon",
    "committedTo": "Auburn",
    "status": "committed",
    "source": "cfbd"
  },
  {
    "id": "cfbd_149129",
    "name": "Dan Voltz",
    "position": "OL",
    "positionRaw": "OG",
    "stars": 4,
    "rating": 0.9556,
    "ranking": 98,
    "classYear": 2012,
    "hometown": "Barrington",
    "state": "IL",
    "country": "USA",
    "height": "6-4",
    "weight": 285,
    "lat": 42.1539141,
    "lng": -88.1361888,
    "school": "Barrington",
    "committedTo": "Wisconsin",
    "status": "committed",
    "source": "cfbd"
  },
  {
    "id": "cfbd_149130",
    "name": "Sterling Shepard",
    "position": "WR",
    "positionRaw": "WR",
    "stars": 4,
    "rating": 0.9551,
    "ranking": 99,
    "classYear": 2012,
    "hometown": "Oklahoma City",
    "state": "OK",
    "country": "USA",
    "height": "5-11",
    "weight": 180,
    "lat": 35.4729886,
    "lng": -97.5170536,
    "school": "Heritage Hall",
    "committedTo": "Oklahoma",
    "status": "committed",
    "source": "cfbd"
  },
  {
    "id": "cfbd_149131",
    "name": "Angelo Jean-Louis",
    "position": "WR",
    "positionRaw": "WR",
    "stars": 4,
    "rating": 0.9546,
    "ranking": 100,
    "classYear": 2012,
    "hometown": "West Palm Beach",
    "state": "FL",
    "country": "USA",
    "height": "6-0",
    "weight": 180,
    "lat": 26.715364,
    "lng": -80.0532942,
    "school": "Palm Beach Central",
    "committedTo": "Miami",
    "status": "committed",
    "source": "cfbd"
  },
  {
    "id": "cfbd_149132",
    "name": "Evan Boehm",
    "position": "OL",
    "positionRaw": "OG",
    "stars": 4,
    "rating": 0.9539,
    "ranking": 101,
    "classYear": 2012,
    "hometown": "Lee's Summit",
    "state": "MO",
    "country": "USA",
    "height": "6-3",
    "weight": 290,
    "lat": 38.9107156,
    "lng": -94.3821295,
    "school": "Lee's Summit West",
    "committedTo": "Missouri",
    "status": "committed",
    "source": "cfbd"
  },
  {
    "id": "cfbd_149133",
    "name": "Cyler Miles",
    "position": "QB",
    "positionRaw": "DUAL",
    "stars": 4,
    "rating": 0.9536,
    "ranking": 102,
    "classYear": 2012,
    "hometown": "Denver",
    "state": "CO",
    "country": "USA",
    "height": "6-4",
    "weight": 215,
    "lat": 39.7392364,
    "lng": -104.9848623,
    "school": "Mullen",
    "committedTo": "Washington",
    "status": "committed",
    "source": "cfbd"
  },
  {
    "id": "cfbd_149134",
    "name": "Jalen Cope-Fitzpatrick",
    "position": "TE",
    "positionRaw": "TE",
    "stars": 4,
    "rating": 0.9534,
    "ranking": 103,
    "classYear": 2012,
    "hometown": "Rocklin",
    "state": "CA",
    "country": "USA",
    "height": "6-5",
    "weight": 235,
    "lat": 38.7907339,
    "lng": -121.2357828,
    "school": "Whitney",
    "committedTo": "USC",
    "status": "committed",
    "source": "cfbd"
  },
  {
    "id": "cfbd_149135",
    "name": "Darreus Rogers",
    "position": "WR",
    "positionRaw": "WR",
    "stars": 4,
    "rating": 0.9533,
    "ranking": 104,
    "classYear": 2012,
    "hometown": "Carson",
    "state": "CA",
    "country": "USA",
    "height": "6-2",
    "weight": 200,
    "lat": 33.8322043,
    "lng": -118.2517547,
    "school": "Carson",
    "committedTo": "USC",
    "status": "committed",
    "source": "cfbd"
  },
  {
    "id": "cfbd_149136",
    "name": "De'Vante Harris",
    "position": "CB",
    "positionRaw": "CB",
    "stars": 4,
    "rating": 0.9532,
    "ranking": 105,
    "classYear": 2012,
    "hometown": "Mesquite",
    "state": "TX",
    "country": "USA",
    "height": "5-11",
    "weight": 170,
    "lat": 32.7666103,
    "lng": -96.599472,
    "school": "Horn",
    "committedTo": "Texas A&M",
    "status": "committed",
    "source": "cfbd"
  },
  {
    "id": "cfbd_149137",
    "name": "Byron Marshall",
    "position": "RB",
    "positionRaw": "RB",
    "stars": 4,
    "rating": 0.9531,
    "ranking": 106,
    "classYear": 2012,
    "hometown": "San Jose",
    "state": "CA",
    "country": "USA",
    "height": "5-10",
    "weight": 195,
    "lat": 37.3361905,
    "lng": -121.8905833,
    "school": "Valley Christian",
    "committedTo": "Oregon",
    "status": "committed",
    "source": "cfbd"
  },
  {
    "id": "cfbd_149138",
    "name": "Michael Starts",
    "position": "OL",
    "positionRaw": "OT",
    "stars": 4,
    "rating": 0.953,
    "ranking": 107,
    "classYear": 2012,
    "hometown": "Waco",
    "state": "TX",
    "country": "USA",
    "height": "6-5",
    "weight": 285,
    "lat": 31.549333,
    "lng": -97.1466695,
    "school": "La Vega",
    "committedTo": "Texas Tech",
    "status": "committed",
    "source": "cfbd"
  },
  {
    "id": "cfbd_149139",
    "name": "Dillon Lee",
    "position": "EDGE",
    "positionRaw": "OLB",
    "stars": 4,
    "rating": 0.9528,
    "ranking": 108,
    "classYear": 2012,
    "hometown": "Buford",
    "state": "GA",
    "country": "USA",
    "height": "6-4",
    "weight": 235,
    "lat": 34.1206564,
    "lng": -84.0043513,
    "school": "Buford",
    "committedTo": "Alabama",
    "status": "committed",
    "source": "cfbd"
  },
  {
    "id": "cfbd_149140",
    "name": "Kendall Sanders",
    "position": "CB",
    "positionRaw": "CB",
    "stars": 4,
    "rating": 0.9519,
    "ranking": 109,
    "classYear": 2012,
    "hometown": "Athens",
    "state": "TX",
    "country": "USA",
    "height": "6-1",
    "weight": 188,
    "lat": 32.2044416,
    "lng": -95.854914,
    "school": "Athens",
    "committedTo": "Texas",
    "status": "committed",
    "source": "cfbd"
  },
  {
    "id": "cfbd_149141",
    "name": "Marcus Maye",
    "position": "EDGE",
    "positionRaw": "OLB",
    "stars": 4,
    "rating": 0.9512,
    "ranking": 110,
    "classYear": 2012,
    "hometown": "Melbourne",
    "state": "FL",
    "country": "USA",
    "height": "6-1",
    "weight": 195,
    "lat": 28.0836269,
    "lng": -80.6081089,
    "school": "Holy Trinity Episcopal Academy",
    "committedTo": "Florida",
    "status": "committed",
    "source": "cfbd"
  },
  {
    "id": "cfbd_149142",
    "name": "Sheldon Day",
    "position": "DL",
    "positionRaw": "DT",
    "stars": 4,
    "rating": 0.9509,
    "ranking": 111,
    "classYear": 2012,
    "hometown": "Indianapolis",
    "state": "IN",
    "country": "USA",
    "height": "6-2",
    "weight": 286,
    "lat": 39.7683331,
    "lng": -86.1583502,
    "school": "Warren Central",
    "committedTo": "Notre Dame",
    "status": "committed",
    "source": "cfbd"
  },
  {
    "id": "cfbd_149143",
    "name": "Tyler Hayes",
    "position": "EDGE",
    "positionRaw": "OLB",
    "stars": 4,
    "rating": 0.9507,
    "ranking": 112,
    "classYear": 2012,
    "hometown": "Thomasville",
    "state": "AL",
    "country": "USA",
    "height": "6-3",
    "weight": 215,
    "lat": 31.9134859,
    "lng": -87.7358367,
    "school": "Thomasville",
    "committedTo": "Alabama",
    "status": "committed",
    "source": "cfbd"
  },
  {
    "id": "cfbd_149144",
    "name": "James Ross",
    "position": "LB",
    "positionRaw": "ILB",
    "stars": 4,
    "rating": 0.9499,
    "ranking": 113,
    "classYear": 2012,
    "hometown": "Orchard Lake",
    "state": "MI",
    "country": "USA",
    "height": "6-1",
    "weight": 215,
    "lat": 42.5869558,
    "lng": -83.36895696372882,
    "school": "St. Mary's",
    "committedTo": "Michigan",
    "status": "committed",
    "source": "cfbd"
  },
  {
    "id": "cfbd_149145",
    "name": "Anthony Alford",
    "position": "QB",
    "positionRaw": "DUAL",
    "stars": 4,
    "rating": 0.9498,
    "ranking": 114,
    "classYear": 2012,
    "hometown": "Petal",
    "state": "MS",
    "country": "USA",
    "height": "6-0",
    "weight": 200,
    "lat": 31.3465627,
    "lng": -89.2600605,
    "school": "Petal",
    "committedTo": "Southern Miss",
    "status": "committed",
    "source": "cfbd"
  },
  {
    "id": "cfbd_149146",
    "name": "Devonte Fields",
    "position": "EDGE",
    "positionRaw": "SDE",
    "stars": 4,
    "rating": 0.9497,
    "ranking": 115,
    "classYear": 2012,
    "hometown": "Arlington",
    "state": "TX",
    "country": "USA",
    "height": "6-4",
    "weight": 225,
    "lat": 32.701938999999996,
    "lng": -97.10562379033699,
    "school": "Martin",
    "committedTo": "TCU",
    "status": "committed",
    "source": "cfbd"
  },
  {
    "id": "cfbd_149147",
    "name": "Kwontie Moore",
    "position": "LB",
    "positionRaw": "ILB",
    "stars": 4,
    "rating": 0.9493,
    "ranking": 116,
    "classYear": 2012,
    "hometown": "Norfolk",
    "state": "VA",
    "country": "USA",
    "height": "6-1.5",
    "weight": 243,
    "lat": 36.8462923,
    "lng": -76.2929252,
    "school": "Norfolk Christian",
    "committedTo": "Virginia",
    "status": "committed",
    "source": "cfbd"
  },
  {
    "id": "cfbd_149148",
    "name": "Jelani Hamilton",
    "position": "EDGE",
    "positionRaw": "SDE",
    "stars": 4,
    "rating": 0.949,
    "ranking": 117,
    "classYear": 2012,
    "hometown": "Fort Lauderdale",
    "state": "FL",
    "country": "USA",
    "height": "6-4",
    "weight": 265,
    "lat": 26.1223084,
    "lng": -80.1433786,
    "school": "St. Thomas Aquinas",
    "committedTo": "Miami",
    "status": "committed",
    "source": "cfbd"
  },
  {
    "id": "cfbd_149149",
    "name": "P.J. Williams",
    "position": "S",
    "positionRaw": "S",
    "stars": 4,
    "rating": 0.9487,
    "ranking": 118,
    "classYear": 2012,
    "hometown": "Ocala",
    "state": "FL",
    "country": "USA",
    "height": "6-1",
    "weight": 170,
    "lat": 29.1871986,
    "lng": -82.1400923,
    "school": "Vanguard",
    "committedTo": "Florida State",
    "status": "committed",
    "source": "cfbd"
  },
  {
    "id": "cfbd_149150",
    "name": "Peter Jinkens",
    "position": "EDGE",
    "positionRaw": "OLB",
    "stars": 4,
    "rating": 0.9486,
    "ranking": 119,
    "classYear": 2012,
    "hometown": "Dallas",
    "state": "TX",
    "country": "USA",
    "height": "6-1",
    "weight": 200,
    "lat": 32.7762719,
    "lng": -96.7968559,
    "school": "Skyline",
    "committedTo": "Texas",
    "status": "committed",
    "source": "cfbd"
  },
  {
    "id": "cfbd_149151",
    "name": "Joel Caleb",
    "position": "WR",
    "positionRaw": "WR",
    "stars": 4,
    "rating": 0.9485,
    "ranking": 120,
    "classYear": 2012,
    "hometown": "Midlothian",
    "state": "VA",
    "country": "USA",
    "height": "6-3",
    "weight": 203,
    "lat": 37.5062673,
    "lng": -77.649268,
    "school": "Clover Hill",
    "committedTo": "Virginia Tech",
    "status": "committed",
    "source": "cfbd"
  },
  {
    "id": "cfbd_149152",
    "name": "Quay Evans",
    "position": "DL",
    "positionRaw": "DT",
    "stars": 4,
    "rating": 0.9482,
    "ranking": 121,
    "classYear": 2012,
    "hometown": "Morton",
    "state": "MS",
    "country": "USA",
    "height": "6-3",
    "weight": 305,
    "lat": 32.3537557,
    "lng": -89.6545171,
    "school": "Morton",
    "committedTo": "Mississippi State",
    "status": "committed",
    "source": "cfbd"
  },
  {
    "id": "cfbd_149153",
    "name": "Armani Reeves",
    "position": "CB",
    "positionRaw": "CB",
    "stars": 4,
    "rating": 0.9478,
    "ranking": 122,
    "classYear": 2012,
    "hometown": "West Roxbury",
    "state": "MA",
    "country": "USA",
    "height": "5-11",
    "weight": 180,
    "lat": 42.2792649,
    "lng": -71.1494972,
    "school": "Catholic Memorial",
    "committedTo": "Ohio State",
    "status": "committed",
    "source": "cfbd"
  },
  {
    "id": "cfbd_149154",
    "name": "Tanner Mangum",
    "position": "QB",
    "positionRaw": "PRO",
    "stars": 4,
    "rating": 0.9475,
    "ranking": 123,
    "classYear": 2012,
    "hometown": "Eagle",
    "state": "ID",
    "country": "USA",
    "height": "6-3",
    "weight": 190,
    "lat": 43.6954424,
    "lng": -116.3540138,
    "school": "Eagle",
    "committedTo": "BYU",
    "status": "committed",
    "source": "cfbd"
  },
  {
    "id": "cfbd_149155",
    "name": "Matt Davis",
    "position": "QB",
    "positionRaw": "DUAL",
    "stars": 4,
    "rating": 0.947,
    "ranking": 124,
    "classYear": 2012,
    "hometown": "Houston",
    "state": "TX",
    "country": "USA",
    "height": "6-2",
    "weight": 211,
    "lat": 29.7589382,
    "lng": -95.3676974,
    "school": "Klein Forest",
    "committedTo": "Texas A&M",
    "status": "committed",
    "source": "cfbd"
  },
  {
    "id": "cfbd_149156",
    "name": "Ronnie Stanley",
    "position": "OL",
    "positionRaw": "OT",
    "stars": 4,
    "rating": 0.9461,
    "ranking": 125,
    "classYear": 2012,
    "hometown": "Las Vegas",
    "state": "NV",
    "country": "USA",
    "height": "6-6",
    "weight": 285,
    "lat": 36.1672559,
    "lng": -115.1485163,
    "school": "Bishop Gorman",
    "committedTo": "Notre Dame",
    "status": "committed",
    "source": "cfbd"
  },
  {
    "id": "cfbd_149157",
    "name": "Tyriq McCord",
    "position": "EDGE",
    "positionRaw": "WDE",
    "stars": 4,
    "rating": 0.9459,
    "ranking": 126,
    "classYear": 2012,
    "hometown": "Tampa",
    "state": "FL",
    "country": "USA",
    "height": "6-3",
    "weight": 220,
    "lat": 27.9477595,
    "lng": -82.458444,
    "school": "Jefferson",
    "committedTo": "Miami",
    "status": "committed",
    "source": "cfbd"
  },
  {
    "id": "cfbd_149158",
    "name": "Chris Wormley",
    "position": "EDGE",
    "positionRaw": "SDE",
    "stars": 4,
    "rating": 0.9456,
    "ranking": 127,
    "classYear": 2012,
    "hometown": "Toledo",
    "state": "OH",
    "country": "USA",
    "height": "6-5",
    "weight": 250,
    "lat": 41.6786754,
    "lng": -83.5127283,
    "school": "Whitmer",
    "committedTo": "Michigan",
    "status": "committed",
    "source": "cfbd"
  },
  {
    "id": "cfbd_149159",
    "name": "Kenyan Drake",
    "position": "RB",
    "positionRaw": "APB",
    "stars": 4,
    "rating": 0.9454,
    "ranking": 128,
    "classYear": 2012,
    "hometown": "Powder Springs",
    "state": "GA",
    "country": "USA",
    "height": "6-1",
    "weight": 187,
    "lat": 33.8595492,
    "lng": -84.683824,
    "school": "Hillgrove",
    "committedTo": "Alabama",
    "status": "committed",
    "source": "cfbd"
  },
  {
    "id": "cfbd_149160",
    "name": "Deon Bush",
    "position": "S",
    "positionRaw": "S",
    "stars": 4,
    "rating": 0.9452,
    "ranking": 129,
    "classYear": 2012,
    "hometown": "Miami",
    "state": "FL",
    "country": "USA",
    "height": "6-1",
    "weight": 176,
    "lat": 25.7742658,
    "lng": -80.1936589,
    "school": "Columbus",
    "committedTo": "Miami",
    "status": "committed",
    "source": "cfbd"
  },
  {
    "id": "cfbd_149161",
    "name": "Brandon Greene",
    "position": "OL",
    "positionRaw": "OT",
    "stars": 4,
    "rating": 0.945,
    "ranking": 130,
    "classYear": 2012,
    "hometown": "Ellenwood",
    "state": "GA",
    "country": "USA",
    "height": "6-5",
    "weight": 297,
    "lat": 33.6101096,
    "lng": -84.287978,
    "school": "Cedar Grove",
    "committedTo": "Alabama",
    "status": "committed",
    "source": "cfbd"
  },
  {
    "id": "cfbd_149162",
    "name": "Scott Felix",
    "position": "LB",
    "positionRaw": "ILB",
    "stars": 4,
    "rating": 0.9438,
    "ranking": 131,
    "classYear": 2012,
    "hometown": "Norco",
    "state": "CA",
    "country": "USA",
    "height": "6-3",
    "weight": 220,
    "lat": 33.9323307,
    "lng": -117.5508901,
    "school": "Norco",
    "committedTo": "USC",
    "status": "committed",
    "source": "cfbd"
  },
  {
    "id": "cfbd_149163",
    "name": "Kevon Seymour",
    "position": "CB",
    "positionRaw": "CB",
    "stars": 4,
    "rating": 0.9437,
    "ranking": 132,
    "classYear": 2012,
    "hometown": "Pasadena",
    "state": "CA",
    "country": "USA",
    "height": "6-0",
    "weight": 180,
    "lat": 34.1476452,
    "lng": -118.1444779,
    "school": "John Muir",
    "committedTo": "USC",
    "status": "committed",
    "source": "cfbd"
  },
  {
    "id": "cfbd_149164",
    "name": "Joshua Perry",
    "position": "EDGE",
    "positionRaw": "OLB",
    "stars": 4,
    "rating": 0.9436,
    "ranking": 133,
    "classYear": 2012,
    "hometown": "Lewis Center",
    "state": "OH",
    "country": "USA",
    "height": "6-3",
    "weight": 220,
    "lat": 40.1983958,
    "lng": -83.0101843,
    "school": "Olentangy",
    "committedTo": "Ohio State",
    "status": "committed",
    "source": "cfbd"
  },
  {
    "id": "cfbd_149165",
    "name": "Camrhon Hughes",
    "position": "OL",
    "positionRaw": "OT",
    "stars": 4,
    "rating": 0.9435,
    "ranking": 134,
    "classYear": 2012,
    "hometown": "Harker Heights",
    "state": "TX",
    "country": "USA",
    "height": "6-6",
    "weight": 319,
    "lat": 31.0746347,
    "lng": -97.6590473,
    "school": "Harker Heights",
    "committedTo": "Texas",
    "status": "committed",
    "source": "cfbd"
  },
  {
    "id": "cfbd_149166",
    "name": "Jordan Payton",
    "position": "WR",
    "positionRaw": "WR",
    "stars": 4,
    "rating": 0.9427,
    "ranking": 135,
    "classYear": 2012,
    "hometown": "Thousand Oaks",
    "state": "CA",
    "country": "USA",
    "height": "6-2",
    "weight": 195,
    "lat": 34.17142715,
    "lng": -118.91058772974445,
    "school": "Oaks Christian",
    "committedTo": "UCLA",
    "status": "committed",
    "source": "cfbd"
  },
  {
    "id": "cfbd_149167",
    "name": "Ishmael Adams",
    "position": "CB",
    "positionRaw": "CB",
    "stars": 4,
    "rating": 0.9427,
    "ranking": 136,
    "classYear": 2012,
    "hometown": "Thousand Oaks",
    "state": "CA",
    "country": "USA",
    "height": "5-10",
    "weight": 182,
    "lat": 34.17142715,
    "lng": -118.91058772974445,
    "school": "Oaks Christian",
    "committedTo": "UCLA",
    "status": "committed",
    "source": "cfbd"
  },
  {
    "id": "cfbd_149168",
    "name": "Colin Thompson",
    "position": "TE",
    "positionRaw": "TE",
    "stars": 4,
    "rating": 0.9427,
    "ranking": 137,
    "classYear": 2012,
    "hometown": "Warminster",
    "state": "PA",
    "country": "USA",
    "height": "6-5",
    "weight": 263,
    "lat": 40.2067751,
    "lng": -75.0996159,
    "school": "Archbishop Wood",
    "committedTo": "Florida",
    "status": "committed",
    "source": "cfbd"
  },
  {
    "id": "cfbd_149169",
    "name": "D.J. Foster",
    "position": "ATH",
    "positionRaw": "ATH",
    "stars": 4,
    "rating": 0.9421,
    "ranking": 138,
    "classYear": 2012,
    "hometown": "Scottsdale",
    "state": "AZ",
    "country": "USA",
    "height": "6-0",
    "weight": 185,
    "lat": 33.4942189,
    "lng": -111.9260184,
    "school": "Saguaro",
    "committedTo": "Arizona State",
    "status": "committed",
    "source": "cfbd"
  },
  {
    "id": "cfbd_149170",
    "name": "Denzel Devall",
    "position": "LB",
    "positionRaw": "ILB",
    "stars": 4,
    "rating": 0.9415,
    "ranking": 139,
    "classYear": 2012,
    "hometown": "Bastrop",
    "state": "LA",
    "country": "USA",
    "height": "6-2",
    "weight": 240,
    "lat": 32.7761446,
    "lng": -91.9082967,
    "school": "Bastrop",
    "committedTo": "Alabama",
    "status": "committed",
    "source": "cfbd"
  },
  {
    "id": "cfbd_149171",
    "name": "Leonard Floyd",
    "position": "EDGE",
    "positionRaw": "OLB",
    "stars": 4,
    "rating": 0.941,
    "ranking": 140,
    "classYear": 2012,
    "hometown": "Eastman",
    "state": "GA",
    "country": "USA",
    "height": "6-5",
    "weight": 211,
    "lat": 32.1976729,
    "lng": -83.1776514,
    "school": "Dodge County",
    "committedTo": "Georgia",
    "status": "committed",
    "source": "cfbd"
  },
  {
    "id": "cfbd_149172",
    "name": "Sean Price",
    "position": "TE",
    "positionRaw": "TE",
    "stars": 4,
    "rating": 0.9408,
    "ranking": 141,
    "classYear": 2012,
    "hometown": "Citra",
    "state": "FL",
    "country": "USA",
    "height": "6-3",
    "weight": 235,
    "lat": 29.4119166,
    "lng": -82.1098156,
    "school": "North Marion",
    "committedTo": "South Florida",
    "status": "committed",
    "source": "cfbd"
  },
  {
    "id": "cfbd_149173",
    "name": "Wes Brown",
    "position": "RB",
    "positionRaw": "RB",
    "stars": 4,
    "rating": 0.9404,
    "ranking": 142,
    "classYear": 2012,
    "hometown": "Olney",
    "state": "MD",
    "country": "USA",
    "height": "6-0",
    "weight": 201,
    "lat": 39.1532123,
    "lng": -77.0668408,
    "school": "Our Lady of Good Counsel",
    "committedTo": "Maryland",
    "status": "committed",
    "source": "cfbd"
  },
  {
    "id": "cfbd_149174",
    "name": "Royce Jenkins-Stone",
    "position": "EDGE",
    "positionRaw": "OLB",
    "stars": 4,
    "rating": 0.9403,
    "ranking": 143,
    "classYear": 2012,
    "hometown": "Detroit",
    "state": "MI",
    "country": "USA",
    "height": "6-2",
    "weight": 228,
    "lat": 42.3315509,
    "lng": -83.0466403,
    "school": "Cass Technical",
    "committedTo": "Michigan",
    "status": "committed",
    "source": "cfbd"
  },
  {
    "id": "cfbd_149175",
    "name": "KeiVarae Russell",
    "position": "RB",
    "positionRaw": "APB",
    "stars": 4,
    "rating": 0.9403,
    "ranking": 144,
    "classYear": 2012,
    "hometown": "Everett",
    "state": "WA",
    "country": "USA",
    "height": "6-0",
    "weight": 175,
    "lat": 47.9673056,
    "lng": -122.2013998,
    "school": "Mariner",
    "committedTo": "Notre Dame",
    "status": "committed",
    "source": "cfbd"
  },
  {
    "id": "cfbd_149176",
    "name": "Justin Thomas",
    "position": "ATH",
    "positionRaw": "ATH",
    "stars": 4,
    "rating": 0.94,
    "ranking": 145,
    "classYear": 2012,
    "hometown": "Prattville",
    "state": "AL",
    "country": "USA",
    "height": "5-10",
    "weight": 176,
    "lat": 32.4640245,
    "lng": -86.4596966,
    "school": "Prattville",
    "committedTo": "Georgia Tech",
    "status": "committed",
    "source": "cfbd"
  },
  {
    "id": "cfbd_149177",
    "name": "Raphael Kirby",
    "position": "LB",
    "positionRaw": "ILB",
    "stars": 4,
    "rating": 0.9397,
    "ranking": 146,
    "classYear": 2012,
    "hometown": "Stone Mountain",
    "state": "GA",
    "country": "USA",
    "height": "6-2",
    "weight": 215,
    "lat": 33.8080924,
    "lng": -84.1706273,
    "school": "Stephenson",
    "committedTo": "Miami",
    "status": "committed",
    "source": "cfbd"
  },
  {
    "id": "cfbd_149178",
    "name": "Terry Richardson",
    "position": "CB",
    "positionRaw": "CB",
    "stars": 4,
    "rating": 0.9396,
    "ranking": 147,
    "classYear": 2012,
    "hometown": "Detroit",
    "state": "MI",
    "country": "USA",
    "height": "5-9",
    "weight": 165,
    "lat": 42.3315509,
    "lng": -83.0466403,
    "school": "Cass Technical",
    "committedTo": "Michigan",
    "status": "committed",
    "source": "cfbd"
  },
  {
    "id": "cfbd_149179",
    "name": "Ricardo Louis",
    "position": "WR",
    "positionRaw": "WR",
    "stars": 4,
    "rating": 0.9393,
    "ranking": 148,
    "classYear": 2012,
    "hometown": "Miami Beach",
    "state": "FL",
    "country": "USA",
    "height": "6-2",
    "weight": 210,
    "lat": 25.7929198,
    "lng": -80.1353006,
    "school": "Miami Beach Senior",
    "committedTo": "Auburn",
    "status": "committed",
    "source": "cfbd"
  },
  {
    "id": "cfbd_149180",
    "name": "Dominique Wheeler",
    "position": "ATH",
    "positionRaw": "ATH",
    "stars": 4,
    "rating": 0.9391,
    "ranking": 149,
    "classYear": 2012,
    "hometown": "Crockett",
    "state": "TX",
    "country": "USA",
    "height": "6-2",
    "weight": 178,
    "lat": 31.318017,
    "lng": -95.4572993,
    "school": "Crockett",
    "committedTo": "Texas Tech",
    "status": "committed",
    "source": "cfbd"
  },
  {
    "id": "cfbd_149181",
    "name": "Vince Biegel",
    "position": "EDGE",
    "positionRaw": "OLB",
    "stars": 4,
    "rating": 0.9388,
    "ranking": 150,
    "classYear": 2012,
    "hometown": "Wisconsin Rapids",
    "state": "WI",
    "country": "USA",
    "height": "6-3",
    "weight": 210,
    "lat": 44.3917589,
    "lng": -89.8228767,
    "school": "Lincoln",
    "committedTo": "Wisconsin",
    "status": "committed",
    "source": "cfbd"
  },
  {
    "id": "cfbd_149182",
    "name": "Paul Thurston",
    "position": "OL",
    "positionRaw": "OT",
    "stars": 4,
    "rating": 0.9385,
    "ranking": 151,
    "classYear": 2012,
    "hometown": "Arvada",
    "state": "CO",
    "country": "USA",
    "height": "6-5",
    "weight": 275,
    "lat": 39.8211225,
    "lng": -105.22074299044587,
    "school": "Arvada West",
    "committedTo": "Nebraska",
    "status": "committed",
    "source": "cfbd"
  },
  {
    "id": "cfbd_149183",
    "name": "Jarron Jones",
    "position": "OL",
    "positionRaw": "OT",
    "stars": 4,
    "rating": 0.9381,
    "ranking": 152,
    "classYear": 2012,
    "hometown": "Rochester",
    "state": "NY",
    "country": "USA",
    "height": "6-6",
    "weight": 300,
    "lat": 43.157285,
    "lng": -77.615214,
    "school": "Aquinas Institute",
    "committedTo": "Notre Dame",
    "status": "committed",
    "source": "cfbd"
  },
  {
    "id": "cfbd_149184",
    "name": "Geno Lewis",
    "position": "WR",
    "positionRaw": "WR",
    "stars": 4,
    "rating": 0.9373,
    "ranking": 153,
    "classYear": 2012,
    "hometown": "Plymouth",
    "state": "PA",
    "country": "USA",
    "height": "6-1",
    "weight": 180,
    "lat": 41.2403596,
    "lng": -75.9446428,
    "school": "Wyoming Valley West",
    "committedTo": "Penn State",
    "status": "committed",
    "source": "cfbd"
  },
  {
    "id": "cfbd_149185",
    "name": "Corey Coleman",
    "position": "ATH",
    "positionRaw": "ATH",
    "stars": 4,
    "rating": 0.9371,
    "ranking": 154,
    "classYear": 2012,
    "hometown": "Richardson",
    "state": "TX",
    "country": "USA",
    "height": "5-11",
    "weight": 173,
    "lat": 32.9481789,
    "lng": -96.7297206,
    "school": "Pearce",
    "committedTo": "Baylor",
    "status": "committed",
    "source": "cfbd"
  },
  {
    "id": "cfbd_149186",
    "name": "Marvin Bracy",
    "position": "WR",
    "positionRaw": "WR",
    "stars": 4,
    "rating": 0.9363,
    "ranking": 155,
    "classYear": 2012,
    "hometown": "Orlando",
    "state": "FL",
    "country": "USA",
    "height": "5-9",
    "weight": 165,
    "lat": 28.5421109,
    "lng": -81.3790304,
    "school": "Boone",
    "committedTo": "Florida State",
    "status": "committed",
    "source": "cfbd"
  },
  {
    "id": "cfbd_149187",
    "name": "Justin Shanks",
    "position": "DL",
    "positionRaw": "DT",
    "stars": 4,
    "rating": 0.936,
    "ranking": 156,
    "classYear": 2012,
    "hometown": "Prattville",
    "state": "AL",
    "country": "USA",
    "height": "6-2",
    "weight": 295,
    "lat": 32.4640245,
    "lng": -86.4596966,
    "school": "Prattville",
    "committedTo": "Florida State",
    "status": "committed",
    "source": "cfbd"
  },
  {
    "id": "cfbd_149188",
    "name": "Joshua Holsey",
    "position": "CB",
    "positionRaw": "CB",
    "stars": 4,
    "rating": 0.9358,
    "ranking": 157,
    "classYear": 2012,
    "hometown": "Fairburn",
    "state": "GA",
    "country": "USA",
    "height": "5-11",
    "weight": 175,
    "lat": 33.5670562,
    "lng": -84.5810418,
    "school": "Creekside",
    "committedTo": "Auburn",
    "status": "committed",
    "source": "cfbd"
  },
  {
    "id": "cfbd_149189",
    "name": "Ereck Flowers",
    "position": "OL",
    "positionRaw": "OT",
    "stars": 4,
    "rating": 0.9349,
    "ranking": 158,
    "classYear": 2012,
    "hometown": "Miami",
    "state": "FL",
    "country": "USA",
    "height": "6-6",
    "weight": 315,
    "lat": 25.7742658,
    "lng": -80.1936589,
    "school": "Norland",
    "committedTo": "Miami",
    "status": "committed",
    "source": "cfbd"
  },
  {
    "id": "cfbd_149190",
    "name": "Matt Jones",
    "position": "ATH",
    "positionRaw": "ATH",
    "stars": 4,
    "rating": 0.9347,
    "ranking": 159,
    "classYear": 2012,
    "hometown": "Seffner",
    "state": "FL",
    "country": "USA",
    "height": "6-3",
    "weight": 230,
    "lat": 27.998541000000003,
    "lng": -82.27488400114905,
    "school": "Armwood",
    "committedTo": "Florida",
    "status": "committed",
    "source": "cfbd"
  },
  {
    "id": "cfbd_149191",
    "name": "Tyler Nero",
    "position": "DL",
    "positionRaw": "DT",
    "stars": 4,
    "rating": 0.9344,
    "ranking": 160,
    "classYear": 2012,
    "hometown": "Atmore",
    "state": "AL",
    "country": "USA",
    "height": "6-2",
    "weight": 285,
    "lat": 31.0237921,
    "lng": -87.4938708,
    "school": "Escambia County",
    "committedTo": "Auburn",
    "status": "committed",
    "source": "cfbd"
  },
  {
    "id": "cfbd_149192",
    "name": "Brock Stadnik",
    "position": "OL",
    "positionRaw": "OT",
    "stars": 4,
    "rating": 0.9341,
    "ranking": 161,
    "classYear": 2012,
    "hometown": "Greensboro",
    "state": "NC",
    "country": "USA",
    "height": "6-5",
    "weight": 285,
    "lat": 36.0726355,
    "lng": -79.7919754,
    "school": "Western Guilford",
    "committedTo": "South Carolina",
    "status": "committed",
    "source": "cfbd"
  },
  {
    "id": "cfbd_149193",
    "name": "Omari Phillips",
    "position": "DL",
    "positionRaw": "DT",
    "stars": 4,
    "rating": 0.9327,
    "ranking": 162,
    "classYear": 2012,
    "hometown": "Venice",
    "state": "FL",
    "country": "USA",
    "height": "6-6",
    "weight": 325,
    "lat": 27.0999188,
    "lng": -82.4543597,
    "school": "Venice",
    "committedTo": "Tennessee",
    "status": "committed",
    "source": "cfbd"
  },
  {
    "id": "cfbd_149194",
    "name": "Taylor Decker",
    "position": "OL",
    "positionRaw": "OT",
    "stars": 4,
    "rating": 0.9326,
    "ranking": 163,
    "classYear": 2012,
    "hometown": "Vandalia",
    "state": "OH",
    "country": "USA",
    "height": "6-8",
    "weight": 315,
    "lat": 39.8906122,
    "lng": -84.1988308,
    "school": "Butler",
    "committedTo": "Ohio State",
    "status": "committed",
    "source": "cfbd"
  },
  {
    "id": "cfbd_149195",
    "name": "Gabe Marks",
    "position": "WR",
    "positionRaw": "WR",
    "stars": 4,
    "rating": 0.9325,
    "ranking": 164,
    "classYear": 2012,
    "hometown": "Los Angeles",
    "state": "CA",
    "country": "USA",
    "height": "5-11",
    "weight": 175,
    "lat": 34.0536909,
    "lng": -118.2427666,
    "school": "Venice",
    "committedTo": "Washington State",
    "status": "committed",
    "source": "cfbd"
  },
  {
    "id": "cfbd_149196",
    "name": "Adrian Colbert",
    "position": "S",
    "positionRaw": "S",
    "stars": 4,
    "rating": 0.9324,
    "ranking": 165,
    "classYear": 2012,
    "hometown": "Mineral Wells",
    "state": "TX",
    "country": "USA",
    "height": "6-1",
    "weight": 193,
    "lat": 32.8084605,
    "lng": -98.1128223,
    "school": "Mineral Wells",
    "committedTo": "Texas",
    "status": "committed",
    "source": "cfbd"
  },
  {
    "id": "cfbd_149197",
    "name": "Camren Williams",
    "position": "EDGE",
    "positionRaw": "OLB",
    "stars": 4,
    "rating": 0.9324,
    "ranking": 166,
    "classYear": 2012,
    "hometown": "West Roxbury",
    "state": "MA",
    "country": "USA",
    "height": "6-1",
    "weight": 217,
    "lat": 42.2792649,
    "lng": -71.1494972,
    "school": "Catholic Memorial",
    "committedTo": "Ohio State",
    "status": "committed",
    "source": "cfbd"
  },
  {
    "id": "cfbd_149198",
    "name": "Vadal Alexander",
    "position": "OL",
    "positionRaw": "OG",
    "stars": 4,
    "rating": 0.9324,
    "ranking": 167,
    "classYear": 2012,
    "hometown": "Buford",
    "state": "GA",
    "country": "USA",
    "height": "6-6",
    "weight": 315,
    "lat": 34.1206564,
    "lng": -84.0043513,
    "school": "Buford",
    "committedTo": "LSU",
    "status": "committed",
    "source": "cfbd"
  },
  {
    "id": "cfbd_149199",
    "name": "John Michael McGee",
    "position": "OL",
    "positionRaw": "OG",
    "stars": 4,
    "rating": 0.9312,
    "ranking": 168,
    "classYear": 2012,
    "hometown": "Texarkana",
    "state": "TX",
    "country": "USA",
    "height": "6-4",
    "weight": 255,
    "lat": 33.44628645,
    "lng": -94.07638067493534,
    "school": "Texas High",
    "committedTo": "Oklahoma",
    "status": "committed",
    "source": "cfbd"
  },
  {
    "id": "cfbd_149200",
    "name": "Keith Brown",
    "position": "LB",
    "positionRaw": "ILB",
    "stars": 4,
    "rating": 0.931,
    "ranking": 169,
    "classYear": 2012,
    "hometown": "Miami",
    "state": "FL",
    "country": "USA",
    "height": "6-2",
    "weight": 218,
    "lat": 25.7742658,
    "lng": -80.1936589,
    "school": "Norland",
    "committedTo": "Louisville",
    "status": "committed",
    "source": "cfbd"
  },
  {
    "id": "cfbd_149201",
    "name": "D'vario Montgomery",
    "position": "WR",
    "positionRaw": "WR",
    "stars": 4,
    "rating": 0.9308,
    "ranking": 170,
    "classYear": 2012,
    "hometown": "Winter Park",
    "state": "FL",
    "country": "USA",
    "height": "6-3",
    "weight": 210,
    "lat": 26.13784445,
    "lng": -81.75399813758739,
    "school": "Winter Park",
    "committedTo": "South Florida",
    "status": "committed",
    "source": "cfbd"
  },
  {
    "id": "cfbd_149202",
    "name": "Korren Kirven",
    "position": "DL",
    "positionRaw": "DT",
    "stars": 4,
    "rating": 0.9305,
    "ranking": 171,
    "classYear": 2012,
    "hometown": "Lynchburg",
    "state": "VA",
    "country": "USA",
    "height": "6-4",
    "weight": 280,
    "lat": 37.4137536,
    "lng": -79.1422464,
    "school": "Brookville",
    "committedTo": "Alabama",
    "status": "committed",
    "source": "cfbd"
  },
  {
    "id": "cfbd_149203",
    "name": "Duke Thomas",
    "position": "ATH",
    "positionRaw": "ATH",
    "stars": 4,
    "rating": 0.93,
    "ranking": 172,
    "classYear": 2012,
    "hometown": "Copperas Cove",
    "state": "TX",
    "country": "USA",
    "height": "5-10",
    "weight": 165,
    "lat": 31.124062,
    "lng": -97.9030785,
    "school": "Copperas Cove",
    "committedTo": "Texas",
    "status": "committed",
    "source": "cfbd"
  },
  {
    "id": "cfbd_149204",
    "name": "David Perkins",
    "position": "EDGE",
    "positionRaw": "OLB",
    "stars": 4,
    "rating": 0.93,
    "ranking": 173,
    "classYear": 2012,
    "hometown": "South Bend",
    "state": "IN",
    "country": "USA",
    "height": "6-3",
    "weight": 230,
    "lat": 41.6833813,
    "lng": -86.2500066,
    "school": "Washington",
    "committedTo": "Ohio State",
    "status": "committed",
    "source": "cfbd"
  },
  {
    "id": "cfbd_149205",
    "name": "Leonte Carroo",
    "position": "WR",
    "positionRaw": "WR",
    "stars": 4,
    "rating": 0.9294,
    "ranking": 174,
    "classYear": 2012,
    "hometown": "Ramsey",
    "state": "NJ",
    "country": "USA",
    "height": "6-2",
    "weight": 195,
    "lat": 41.0573188,
    "lng": -74.1409771,
    "school": "Don Bosco Prep",
    "committedTo": "Rutgers",
    "status": "committed",
    "source": "cfbd"
  },
  {
    "id": "cfbd_149206",
    "name": "Connor Brewer",
    "position": "QB",
    "positionRaw": "PRO",
    "stars": 4,
    "rating": 0.9289,
    "ranking": 175,
    "classYear": 2012,
    "hometown": "Paradise Valley",
    "state": "AZ",
    "country": "USA",
    "height": "6-2",
    "weight": 195,
    "lat": 33.5428006,
    "lng": -111.9556001,
    "school": "Chaparral",
    "committedTo": "Texas",
    "status": "committed",
    "source": "cfbd"
  },
  {
    "id": "cfbd_149207",
    "name": "Reginald Davis",
    "position": "ATH",
    "positionRaw": "ATH",
    "stars": 4,
    "rating": 0.9289,
    "ranking": 176,
    "classYear": 2012,
    "hometown": "Tenaha",
    "state": "TX",
    "country": "USA",
    "height": "6-1",
    "weight": 188,
    "lat": 31.9437799,
    "lng": -94.2440865,
    "school": "Tenaha",
    "committedTo": "Texas Tech",
    "status": "committed",
    "source": "cfbd"
  },
  {
    "id": "cfbd_149208",
    "name": "Tom Strobel",
    "position": "EDGE",
    "positionRaw": "WDE",
    "stars": 4,
    "rating": 0.9284,
    "ranking": 177,
    "classYear": 2012,
    "hometown": "Mentor",
    "state": "OH",
    "country": "USA",
    "height": "6-6",
    "weight": 240,
    "lat": 41.6661573,
    "lng": -81.339552,
    "school": "Mentor",
    "committedTo": "Michigan",
    "status": "committed",
    "source": "cfbd"
  },
  {
    "id": "cfbd_149209",
    "name": "Greg Garmon",
    "position": "ATH",
    "positionRaw": "ATH",
    "stars": 4,
    "rating": 0.9283,
    "ranking": 178,
    "classYear": 2012,
    "hometown": "Erie",
    "state": "PA",
    "country": "USA",
    "height": "6-1",
    "weight": 200,
    "lat": 42.1294712,
    "lng": -80.0852695,
    "school": "McDowell",
    "committedTo": "Iowa",
    "status": "committed",
    "source": "cfbd"
  },
  {
    "id": "cfbd_149210",
    "name": "Jonathan Williams",
    "position": "RB",
    "positionRaw": "RB",
    "stars": 4,
    "rating": 0.9276,
    "ranking": 179,
    "classYear": 2012,
    "hometown": "Allen",
    "state": "TX",
    "country": "USA",
    "height": "5-11",
    "weight": 205,
    "lat": 33.1031744,
    "lng": -96.6705503,
    "school": "Allen",
    "committedTo": "Arkansas",
    "status": "committed",
    "source": "cfbd"
  },
  {
    "id": "cfbd_149211",
    "name": "Nick James",
    "position": "DL",
    "positionRaw": "DT",
    "stars": 4,
    "rating": 0.9275,
    "ranking": 180,
    "classYear": 2012,
    "hometown": "Long Beach",
    "state": "MS",
    "country": "USA",
    "height": "6-5",
    "weight": 335,
    "lat": 30.3504751,
    "lng": -89.1528176,
    "school": "Long Beach",
    "committedTo": "Mississippi State",
    "status": "committed",
    "source": "cfbd"
  },
  {
    "id": "cfbd_149212",
    "name": "Sheldon Dawson",
    "position": "ATH",
    "positionRaw": "ATH",
    "stars": 4,
    "rating": 0.9274,
    "ranking": 181,
    "classYear": 2012,
    "hometown": "Memphis",
    "state": "TN",
    "country": "USA",
    "height": "5-11",
    "weight": 178,
    "lat": 35.1490215,
    "lng": -90.0516285,
    "school": "Ridgeway",
    "committedTo": "Georgia",
    "status": "committed",
    "source": "cfbd"
  },
  {
    "id": "cfbd_149213",
    "name": "Derrick Woods",
    "position": "WR",
    "positionRaw": "WR",
    "stars": 4,
    "rating": 0.9273,
    "ranking": 182,
    "classYear": 2012,
    "hometown": "Inglewood",
    "state": "CA",
    "country": "USA",
    "height": "6-1",
    "weight": 185,
    "lat": 33.9562003,
    "lng": -118.353132,
    "school": "Inglewood",
    "committedTo": "Oklahoma",
    "status": "committed",
    "source": "cfbd"
  },
  {
    "id": "cfbd_149214",
    "name": "Evan Goodman",
    "position": "OL",
    "positionRaw": "OT",
    "stars": 4,
    "rating": 0.9271,
    "ranking": 183,
    "classYear": 2012,
    "hometown": "Lakeland",
    "state": "FL",
    "country": "USA",
    "height": "6-4",
    "weight": 290,
    "lat": 28.0394654,
    "lng": -81.9498042,
    "school": "Lakeland",
    "committedTo": "Arizona State",
    "status": "committed",
    "source": "cfbd"
  },
  {
    "id": "cfbd_149215",
    "name": "Jaydon Mickens",
    "position": "WR",
    "positionRaw": "WR",
    "stars": 4,
    "rating": 0.9268,
    "ranking": 184,
    "classYear": 2012,
    "hometown": "Los Angeles",
    "state": "CA",
    "country": "USA",
    "height": "5-9",
    "weight": 165,
    "lat": 34.0536909,
    "lng": -118.2427666,
    "school": "Dorsey",
    "committedTo": "Washington",
    "status": "committed",
    "source": "cfbd"
  },
  {
    "id": "cfbd_149216",
    "name": "Deon-Tay McManus",
    "position": "EDGE",
    "positionRaw": "OLB",
    "stars": 4,
    "rating": 0.9268,
    "ranking": 185,
    "classYear": 2012,
    "hometown": "Baltimore",
    "state": "MD",
    "country": "USA",
    "height": "6-2",
    "weight": 210,
    "lat": 39.2908816,
    "lng": -76.610759,
    "school": "Dunbar",
    "committedTo": "West Virginia",
    "status": "committed",
    "source": "cfbd"
  },
  {
    "id": "cfbd_149217",
    "name": "Bryson Echols",
    "position": "CB",
    "positionRaw": "CB",
    "stars": 4,
    "rating": 0.9266,
    "ranking": 186,
    "classYear": 2012,
    "hometown": "DeSoto",
    "state": "TX",
    "country": "USA",
    "height": "5-10",
    "weight": 173,
    "lat": 32.6061241,
    "lng": -96.865612653687,
    "school": "DeSoto",
    "committedTo": "Texas",
    "status": "committed",
    "source": "cfbd"
  },
  {
    "id": "cfbd_149218",
    "name": "Chad Kelly",
    "position": "QB",
    "positionRaw": "DUAL",
    "stars": 4,
    "rating": 0.9264,
    "ranking": 187,
    "classYear": 2012,
    "hometown": "Buffalo",
    "state": "NY",
    "country": "USA",
    "height": "6-3",
    "weight": 205,
    "lat": 42.8867166,
    "lng": -78.8783922,
    "school": "St. Joseph School",
    "committedTo": "Clemson",
    "status": "committed",
    "source": "cfbd"
  },
  {
    "id": "cfbd_149219",
    "name": "Patrick Miller",
    "position": "OL",
    "positionRaw": "OT",
    "stars": 4,
    "rating": 0.9262,
    "ranking": 188,
    "classYear": 2012,
    "hometown": "Palm Beach Gardens",
    "state": "FL",
    "country": "USA",
    "height": "6-6",
    "weight": 275,
    "lat": 26.8418256,
    "lng": -80.13590694666684,
    "school": "Dwyer",
    "committedTo": "Auburn",
    "status": "committed",
    "source": "cfbd"
  },
  {
    "id": "cfbd_149220",
    "name": "Pharaoh Brown",
    "position": "EDGE",
    "positionRaw": "WDE",
    "stars": 4,
    "rating": 0.926,
    "ranking": 189,
    "classYear": 2012,
    "hometown": "Cleveland",
    "state": "OH",
    "country": "USA",
    "height": "6-6",
    "weight": 230,
    "lat": 41.5051613,
    "lng": -81.6934446,
    "school": "Brush",
    "committedTo": "Oregon",
    "status": "committed",
    "source": "cfbd"
  },
  {
    "id": "cfbd_149221",
    "name": "Troy Hinds",
    "position": "EDGE",
    "positionRaw": "WDE",
    "stars": 4,
    "rating": 0.926,
    "ranking": 190,
    "classYear": 2012,
    "hometown": "Kaysville",
    "state": "UT",
    "country": "USA",
    "height": "6-4",
    "weight": 225,
    "lat": 41.0349847,
    "lng": -111.9383931,
    "school": "Davis",
    "committedTo": "BYU",
    "status": "committed",
    "source": "cfbd"
  },
  {
    "id": "cfbd_149222",
    "name": "Javarius Leamon",
    "position": "OL",
    "positionRaw": "OT",
    "stars": 4,
    "rating": 0.9259,
    "ranking": 191,
    "classYear": 2012,
    "hometown": "Woodruff",
    "state": "SC",
    "country": "USA",
    "height": "6-6",
    "weight": 290,
    "lat": 34.7395701,
    "lng": -82.0370466,
    "school": "Woodruff",
    "committedTo": "South Carolina State",
    "status": "committed",
    "source": "cfbd"
  },
  {
    "id": "cfbd_149223",
    "name": "Demetrious Cox",
    "position": "S",
    "positionRaw": "S",
    "stars": 4,
    "rating": 0.9255,
    "ranking": 192,
    "classYear": 2012,
    "hometown": "Jeannette",
    "state": "PA",
    "country": "USA",
    "height": "6-1",
    "weight": 187,
    "lat": 40.3281247,
    "lng": -79.6153198,
    "school": "Jeannette",
    "committedTo": "Michigan State",
    "status": "committed",
    "source": "cfbd"
  },
  {
    "id": "cfbd_149224",
    "name": "Ken Ekanem",
    "position": "EDGE",
    "positionRaw": "WDE",
    "stars": 4,
    "rating": 0.9251,
    "ranking": 193,
    "classYear": 2012,
    "hometown": "Clifton",
    "state": "VA",
    "country": "USA",
    "height": "6-3",
    "weight": 245,
    "lat": 38.7802204,
    "lng": -77.3864722,
    "school": "Centreville",
    "committedTo": "Virginia Tech",
    "status": "committed",
    "source": "cfbd"
  },
  {
    "id": "cfbd_149225",
    "name": "Dennis Norfleet",
    "position": "RB",
    "positionRaw": "APB",
    "stars": 4,
    "rating": 0.9241,
    "ranking": 194,
    "classYear": 2012,
    "hometown": "Detroit",
    "state": "MI",
    "country": "USA",
    "height": "5-8",
    "weight": 175,
    "lat": 42.3315509,
    "lng": -83.0466403,
    "school": "Martin Luther King",
    "committedTo": "Michigan",
    "status": "committed",
    "source": "cfbd"
  },
  {
    "id": "cfbd_149226",
    "name": "Danielle Hunter",
    "position": "EDGE",
    "positionRaw": "WDE",
    "stars": 4,
    "rating": 0.9241,
    "ranking": 195,
    "classYear": 2012,
    "hometown": "Katy",
    "state": "TX",
    "country": "USA",
    "height": "6-4",
    "weight": 220,
    "lat": 29.7857853,
    "lng": -95.8243956,
    "school": "Katy",
    "committedTo": "LSU",
    "status": "committed",
    "source": "cfbd"
  },
  {
    "id": "cfbd_149227",
    "name": "Drew Harris",
    "position": "RB",
    "positionRaw": "RB",
    "stars": 4,
    "rating": 0.9239,
    "ranking": 196,
    "classYear": 2012,
    "hometown": "Exton",
    "state": "PA",
    "country": "USA",
    "height": "6-2",
    "weight": 195,
    "lat": 40.0289955,
    "lng": -75.6207651,
    "school": "Downingtown East",
    "committedTo": "Virginia Tech",
    "status": "committed",
    "source": "cfbd"
  },
  {
    "id": "cfbd_149228",
    "name": "De'van Bogard",
    "position": "S",
    "positionRaw": "S",
    "stars": 4,
    "rating": 0.9232,
    "ranking": 197,
    "classYear": 2012,
    "hometown": "Cleveland",
    "state": "OH",
    "country": "USA",
    "height": "6-0",
    "weight": 190,
    "lat": 41.5051613,
    "lng": -81.6934446,
    "school": "Glenville",
    "committedTo": "Ohio State",
    "status": "committed",
    "source": "cfbd"
  },
  {
    "id": "cfbd_149229",
    "name": "Warren Ball",
    "position": "RB",
    "positionRaw": "RB",
    "stars": 4,
    "rating": 0.9227,
    "ranking": 198,
    "classYear": 2012,
    "hometown": "Columbus",
    "state": "OH",
    "country": "USA",
    "height": "6-2",
    "weight": 203,
    "lat": 39.9622601,
    "lng": -83.0007065,
    "school": "St. Francis de Sales",
    "committedTo": "Ohio State",
    "status": "committed",
    "source": "cfbd"
  },
  {
    "id": "cfbd_149230",
    "name": "Faith Ekakitie",
    "position": "EDGE",
    "positionRaw": "SDE",
    "stars": 4,
    "rating": 0.9226,
    "ranking": 199,
    "classYear": 2012,
    "hometown": "Lake Forest",
    "state": "IL",
    "country": "USA",
    "height": "6-3",
    "weight": 285,
    "lat": 42.2586342,
    "lng": -87.840625,
    "school": "Lake Forest Academy",
    "committedTo": "Iowa",
    "status": "committed",
    "source": "cfbd"
  },
  {
    "id": "cfbd_149231",
    "name": "Kyle Dodson",
    "position": "OL",
    "positionRaw": "OT",
    "stars": 4,
    "rating": 0.9225,
    "ranking": 200,
    "classYear": 2012,
    "hometown": "Cleveland",
    "state": "OH",
    "country": "USA",
    "height": "6-6",
    "weight": 330,
    "lat": 41.5051613,
    "lng": -81.6934446,
    "school": "Cleveland Heights",
    "committedTo": "Ohio State",
    "status": "committed",
    "source": "cfbd"
  },
  {
    "id": "cfbd_149232",
    "name": "Ryan Watson",
    "position": "EDGE",
    "positionRaw": "SDE",
    "stars": 4,
    "rating": 0.9223,
    "ranking": 201,
    "classYear": 2012,
    "hometown": "Olney",
    "state": "MD",
    "country": "USA",
    "height": "6-3",
    "weight": 275,
    "lat": 39.1532123,
    "lng": -77.0668408,
    "school": "Our Lady of Good Counsel",
    "committedTo": "Purdue",
    "status": "committed",
    "source": "cfbd"
  },
  {
    "id": "cfbd_149233",
    "name": "Mike Moore",
    "position": "EDGE",
    "positionRaw": "SDE",
    "stars": 4,
    "rating": 0.9223,
    "ranking": 202,
    "classYear": 2012,
    "hometown": "Hyattsville",
    "state": "MD",
    "country": "USA",
    "height": "6-4",
    "weight": 255,
    "lat": 38.9529442,
    "lng": -76.9408647,
    "school": "DeMatha Catholic",
    "committedTo": "Virginia",
    "status": "committed",
    "source": "cfbd"
  },
  {
    "id": "cfbd_149234",
    "name": "A.J. Leggett",
    "position": "CB",
    "positionRaw": "CB",
    "stars": 4,
    "rating": 0.922,
    "ranking": 203,
    "classYear": 2012,
    "hometown": "Miami",
    "state": "FL",
    "country": "USA",
    "height": "5-11",
    "weight": 175,
    "lat": 25.7742658,
    "lng": -80.1936589,
    "school": "South Miami Senior",
    "committedTo": "Marshall",
    "status": "committed",
    "source": "cfbd"
  },
  {
    "id": "cfbd_149235",
    "name": "Alex Balducci",
    "position": "EDGE",
    "positionRaw": "SDE",
    "stars": 4,
    "rating": 0.9216,
    "ranking": 204,
    "classYear": 2012,
    "hometown": "Portland",
    "state": "OR",
    "country": "USA",
    "height": "6-5",
    "weight": 265,
    "lat": 45.5202471,
    "lng": -122.6741949,
    "school": "Central Catholic",
    "committedTo": "Oregon",
    "status": "committed",
    "source": "cfbd"
  },
  {
    "id": "cfbd_149236",
    "name": "Danny O'Brien",
    "position": "DL",
    "positionRaw": "DT",
    "stars": 4,
    "rating": 0.9215,
    "ranking": 205,
    "classYear": 2012,
    "hometown": "Flint",
    "state": "MI",
    "country": "USA",
    "height": "6-3",
    "weight": 300,
    "lat": 43.0161693,
    "lng": -83.6900211,
    "school": "Flint Powers Catholic",
    "committedTo": "Tennessee",
    "status": "committed",
    "source": "cfbd"
  },
  {
    "id": "cfbd_149237",
    "name": "Ty Darlington",
    "position": "OL",
    "positionRaw": "OC",
    "stars": 4,
    "rating": 0.9214,
    "ranking": 206,
    "classYear": 2012,
    "hometown": "Apopka",
    "state": "FL",
    "country": "USA",
    "height": "6-3",
    "weight": 270,
    "lat": 28.6779683,
    "lng": -81.5115214,
    "school": "Apopka",
    "committedTo": "Oklahoma",
    "status": "committed",
    "source": "cfbd"
  },
  {
    "id": "cfbd_149238",
    "name": "Michael Barton",
    "position": "EDGE",
    "positionRaw": "OLB",
    "stars": 4,
    "rating": 0.9213,
    "ranking": 207,
    "classYear": 2012,
    "hometown": "Concord",
    "state": "CA",
    "country": "USA",
    "height": "6-1",
    "weight": 205,
    "lat": 37.9768525,
    "lng": -122.0335624,
    "school": "De La Salle",
    "committedTo": "California",
    "status": "committed",
    "source": "cfbd"
  },
  {
    "id": "cfbd_149239",
    "name": "Jaleel Johnson",
    "position": "DL",
    "positionRaw": "DT",
    "stars": 4,
    "rating": 0.9212,
    "ranking": 208,
    "classYear": 2012,
    "hometown": "Lombard",
    "state": "IL",
    "country": "USA",
    "height": "6-3",
    "weight": 290,
    "lat": 41.8864687,
    "lng": -88.0201536,
    "school": "Montini Catholic",
    "committedTo": "Iowa",
    "status": "committed",
    "source": "cfbd"
  },
  {
    "id": "cfbd_149240",
    "name": "Kwinton Smith",
    "position": "WR",
    "positionRaw": "WR",
    "stars": 4,
    "rating": 0.9212,
    "ranking": 209,
    "classYear": 2012,
    "hometown": "Dillon",
    "state": "SC",
    "country": "USA",
    "height": "6-4",
    "weight": 200,
    "lat": 34.4165391,
    "lng": -79.3713948,
    "school": "Dillon",
    "committedTo": "South Carolina",
    "status": "committed",
    "source": "cfbd"
  },
  {
    "id": "cfbd_149241",
    "name": "Daje Johnson",
    "position": "ATH",
    "positionRaw": "ATH",
    "stars": 4,
    "rating": 0.921,
    "ranking": 210,
    "classYear": 2012,
    "hometown": "Pflugerville",
    "state": "TX",
    "country": "USA",
    "height": "5-10",
    "weight": 180,
    "lat": 30.4393696,
    "lng": -97.6200043,
    "school": "Hendrickson",
    "committedTo": "Texas",
    "status": "committed",
    "source": "cfbd"
  },
  {
    "id": "cfbd_149242",
    "name": "Chad Voytik",
    "position": "QB",
    "positionRaw": "PRO",
    "stars": 4,
    "rating": 0.9204,
    "ranking": 211,
    "classYear": 2012,
    "hometown": "Cleveland",
    "state": "TN",
    "country": "USA",
    "height": "6-1",
    "weight": 205,
    "lat": 35.1595182,
    "lng": -84.8766115,
    "school": "Cleveland",
    "committedTo": "Pittsburgh",
    "status": "committed",
    "source": "cfbd"
  },
  {
    "id": "cfbd_149243",
    "name": "Bart Houston",
    "position": "QB",
    "positionRaw": "PRO",
    "stars": 4,
    "rating": 0.9203,
    "ranking": 212,
    "classYear": 2012,
    "hometown": "Concord",
    "state": "CA",
    "country": "USA",
    "height": "6-3",
    "weight": 200,
    "lat": 37.9768525,
    "lng": -122.0335624,
    "school": "De La Salle",
    "committedTo": "Wisconsin",
    "status": "committed",
    "source": "cfbd"
  },
  {
    "id": "cfbd_149244",
    "name": "Jeremiah Poutasi",
    "position": "OL",
    "positionRaw": "OT",
    "stars": 4,
    "rating": 0.9201,
    "ranking": 213,
    "classYear": 2012,
    "hometown": "Las Vegas",
    "state": "NV",
    "country": "USA",
    "height": "6-5",
    "weight": 320,
    "lat": 36.1672559,
    "lng": -115.1485163,
    "school": "Desert Pines",
    "committedTo": "Utah",
    "status": "committed",
    "source": "cfbd"
  },
  {
    "id": "cfbd_149245",
    "name": "Dwayne Thomas",
    "position": "CB",
    "positionRaw": "CB",
    "stars": 4,
    "rating": 0.9197,
    "ranking": 214,
    "classYear": 2012,
    "hometown": "New Orleans",
    "state": "LA",
    "country": "USA",
    "height": "6-1",
    "weight": 173,
    "lat": 29.9499323,
    "lng": -90.0701156,
    "school": "O. Perry Walker",
    "committedTo": "LSU",
    "status": "committed",
    "source": "cfbd"
  },
  {
    "id": "cfbd_149246",
    "name": "Dalvin Tomlinson",
    "position": "DL",
    "positionRaw": "DT",
    "stars": 4,
    "rating": 0.9195,
    "ranking": 215,
    "classYear": 2012,
    "hometown": "McDonough",
    "state": "GA",
    "country": "USA",
    "height": "6-3",
    "weight": 270,
    "lat": 33.4473361,
    "lng": -84.1468616,
    "school": "Henry County",
    "committedTo": "Alabama",
    "status": "committed",
    "source": "cfbd"
  },
  {
    "id": "cfbd_149247",
    "name": "Chris Muller",
    "position": "OL",
    "positionRaw": "OT",
    "stars": 4,
    "rating": 0.9193,
    "ranking": 216,
    "classYear": 2012,
    "hometown": "Boyertown",
    "state": "PA",
    "country": "USA",
    "height": "6-6",
    "weight": 287,
    "lat": 40.3337075,
    "lng": -75.6374083,
    "school": "Boyertown Area",
    "committedTo": "Rutgers",
    "status": "committed",
    "source": "cfbd"
  },
  {
    "id": "cfbd_149248",
    "name": "Christo Kourtzidis",
    "position": "TE",
    "positionRaw": "TE",
    "stars": 4,
    "rating": 0.9191,
    "ranking": 217,
    "classYear": 2012,
    "hometown": "Orange",
    "state": "CA",
    "country": "USA",
    "height": "6-4",
    "weight": 238,
    "lat": 33.7872568,
    "lng": -117.8503088,
    "school": "Orange Lutheran",
    "committedTo": "Florida State",
    "status": "committed",
    "source": "cfbd"
  },
  {
    "id": "cfbd_149249",
    "name": "Amara Darboh",
    "position": "WR",
    "positionRaw": "WR",
    "stars": 4,
    "rating": 0.9188,
    "ranking": 218,
    "classYear": 2012,
    "hometown": "West Des Moines",
    "state": "IA",
    "country": "USA",
    "height": "6-2",
    "weight": 205,
    "lat": 41.5645337,
    "lng": -93.7595281,
    "school": "Dowling Catholic",
    "committedTo": "Michigan",
    "status": "committed",
    "source": "cfbd"
  },
  {
    "id": "cfbd_149250",
    "name": "Timothy Cole",
    "position": "EDGE",
    "positionRaw": "OLB",
    "stars": 4,
    "rating": 0.9188,
    "ranking": 219,
    "classYear": 2012,
    "hometown": "Brenham",
    "state": "TX",
    "country": "USA",
    "height": "6-1",
    "weight": 205,
    "lat": 30.1668828,
    "lng": -96.3977442,
    "school": "Brenham",
    "committedTo": "Texas",
    "status": "committed",
    "source": "cfbd"
  },
  {
    "id": "cfbd_149251",
    "name": "Dalton Santos",
    "position": "LB",
    "positionRaw": "ILB",
    "stars": 4,
    "rating": 0.9187,
    "ranking": 220,
    "classYear": 2012,
    "hometown": "Van",
    "state": "TX",
    "country": "USA",
    "height": "6-3",
    "weight": 250,
    "lat": 32.5249976,
    "lng": -95.6376281,
    "school": "Van HS",
    "committedTo": "Texas",
    "status": "committed",
    "source": "cfbd"
  },