[
  {
    "id": "cfbd_161629",
    "name": "Joe McKnight",
    "position": "RB",
    "positionRaw": "RB",
    "stars": 5,
    "rating": 0.9997,
    "ranking": 1,
    "classYear": 2007,
    "hometown": "New Orleans",
    "state": "LA",
    "country": "USA",
    "height": "6-1",
    "weight": 193,
    "lat": 29.9499323,
    "lng": -90.0701156,
    "school": "John Curtis",
    "committedTo": "USC",
    "status": "committed",
    "source": "cfbd"
  },
  {
    "id": "cfbd_161630",
    "name": "Jimmy Clausen",
    "position": "QB",
    "positionRaw": "PRO",
    "stars": 5,
    "rating": 0.9988,
    "ranking": 2,
    "classYear": 2007,
    "hometown": "Thousand Oaks",
    "state": "CA",
    "country": "USA",
    "height": "6-3",
    "weight": 200,
    "lat": 34.17142715,
    "lng": -118.91058772974445,
    "school": "Oaks Christian",
    "committedTo": "Notre Dame",
    "status": "committed",
    "source": "cfbd"
  },
  {
    "id": "cfbd_161631",
    "name": "Eric Berry",
    "position": "CB",
    "positionRaw": "CB",
    "stars": 5,
    "rating": 0.9986,
    "ranking": 3,
    "classYear": 2007,
    "hometown": "Fairburn",
    "state": "GA",
    "country": "USA",
    "height": "6-0",
    "weight": 195,
    "lat": 33.5670562,
    "lng": -84.5810418,
    "school": "Creekside",
    "committedTo": "Tennessee",
    "status": "committed",
    "source": "cfbd"
  },
  {
    "id": "cfbd_161632",
    "name": "Marvin Austin",
    "position": "DL",
    "positionRaw": "DT",
    "stars": 5,
    "rating": 0.9979,
    "ranking": 4,
    "classYear": 2007,
    "hometown": "Washington",
    "state": "DC",
    "country": "USA",
    "height": "6-3",
    "weight": 310,
    "lat": 38.8949855,
    "lng": -77.0365708,
    "school": "Ballou",
    "committedTo": "North Carolina",
    "status": "committed",
    "source": "cfbd"
  },
  {
    "id": "cfbd_161633",
    "name": "Ryan Mallett",
    "position": "QB",
    "positionRaw": "PRO",
    "stars": 5,
    "rating": 0.9978,
    "ranking": 5,
    "classYear": 2007,
    "hometown": "Texarkana",
    "state": "TX",
    "country": "USA",
    "height": "6-6",
    "weight": 220,
    "lat": 33.44628645,
    "lng": -94.07638067493534,
    "school": "Texas High",
    "committedTo": "Michigan",
    "status": "committed",
    "source": "cfbd"
  },
  {
    "id": "cfbd_161634",
    "name": "Chris Galippo",
    "position": "LB",
    "positionRaw": "ILB",
    "stars": 5,
    "rating": 0.9975,
    "ranking": 6,
    "classYear": 2007,
    "hometown": "Anaheim",
    "state": "CA",
    "country": "USA",
    "height": "6-3",
    "weight": 235,
    "lat": 33.8347516,
    "lng": -117.911732,
    "school": "Servite",
    "committedTo": "USC",
    "status": "committed",
    "source": "cfbd"
  },
  {
    "id": "cfbd_161635",
    "name": "Marc Tyler",
    "position": "RB",
    "positionRaw": "RB",
    "stars": 5,
    "rating": 0.997,
    "ranking": 7,
    "classYear": 2007,
    "hometown": "Thousand Oaks",
    "state": "CA",
    "country": "USA",
    "height": "6-0",
    "weight": 215,
    "lat": 34.17142715,
    "lng": -118.91058772974445,
    "school": "Oaks Christian",
    "committedTo": "USC",
    "status": "committed",
    "source": "cfbd"
  },
  {
    "id": "cfbd_161636",
    "name": "Terrance Toliver",
    "position": "WR",
    "positionRaw": "WR",
    "stars": 5,
    "rating": 0.9965,
    "ranking": 8,
    "classYear": 2007,
    "hometown": "Hempstead",
    "state": "TX",
    "country": "USA",
    "height": "6-4",
    "weight": 198,
    "lat": 30.0929491,
    "lng": -96.0806548,
    "school": "Hempstead",
    "committedTo": "LSU",
    "status": "committed",
    "source": "cfbd"
  },
  {
    "id": "cfbd_161637",
    "name": "Everson Griffen",
    "position": "EDGE",
    "positionRaw": "SDE",
    "stars": 5,
    "rating": 0.996,
    "ranking": 9,
    "classYear": 2007,
    "hometown": "Avondale",
    "state": "AZ",
    "country": "USA",
    "height": "6-4",
    "weight": 265,
    "lat": 33.4354989,
    "lng": -112.3495572,
    "school": "Agua Fria",
    "committedTo": "USC",
    "status": "committed",
    "source": "cfbd"
  },
  {
    "id": "cfbd_161638",
    "name": "Noel Devine",
    "position": "RB",
    "positionRaw": "RB",
    "stars": 5,
    "rating": 0.9957,
    "ranking": 10,
    "classYear": 2007,
    "hometown": "North Fort Myers",
    "state": "FL",
    "country": "USA",
    "height": "5-8",
    "weight": 175,
    "lat": 26.6728666,
    "lng": -81.8840848,
    "school": "North Fort Myers",
    "committedTo": "West Virginia",
    "status": "committed",
    "source": "cfbd"
  },
  {
    "id": "cfbd_161639",
    "name": "Tray Allen",
    "position": "OL",
    "positionRaw": "OG",
    "stars": 5,
    "rating": 0.9948,
    "ranking": 11,
    "classYear": 2007,
    "hometown": "Grand Prairie",
    "state": "TX",
    "country": "USA",
    "height": "6-4",
    "weight": 305,
    "lat": 32.657368000000005,
    "lng": -97.02846624175038,
    "school": "South Grand Prairie",
    "committedTo": "Texas",
    "status": "committed",
    "source": "cfbd"
  },
  {
    "id": "cfbd_161640",
    "name": "Arrelious Benn",
    "position": "WR",
    "positionRaw": "WR",
    "stars": 5,
    "rating": 0.9937,
    "ranking": 12,
    "classYear": 2007,
    "hometown": "Washington",
    "state": "DC",
    "country": "USA",
    "height": "6-2",
    "weight": 205,
    "lat": 38.8949855,
    "lng": -77.0365708,
    "school": "Dunbar",
    "committedTo": "Illinois",
    "status": "committed",
    "source": "cfbd"
  },
  {
    "id": "cfbd_161641",
    "name": "Josh Oglesby",
    "position": "OL",
    "positionRaw": "OT",
    "stars": 5,
    "rating": 0.9936,
    "ranking": 13,
    "classYear": 2007,
    "hometown": "Milwaukee",
    "state": "WI",
    "country": "USA",
    "height": "6-7",
    "weight": 335,
    "lat": 43.0349931,
    "lng": -87.922497,
    "school": "Saint Francis",
    "committedTo": "Wisconsin",
    "status": "committed",
    "source": "cfbd"
  },
  {
    "id": "cfbd_161642",
    "name": "Carlos Dunlap",
    "position": "EDGE",
    "positionRaw": "SDE",
    "stars": 5,
    "rating": 0.9935,
    "ranking": 14,
    "classYear": 2007,
    "hometown": "North Charleston",
    "state": "SC",
    "country": "USA",
    "height": "6-7",
    "weight": 260,
    "lat": 32.9131295,
    "lng": -80.0629981965219,
    "school": "Fort Dorchester",
    "committedTo": "Florida",
    "status": "committed",
    "source": "cfbd"
  },
  {
    "id": "cfbd_161643",
    "name": "Martez Wilson",
    "position": "EDGE",
    "positionRaw": "WDE",
    "stars": 5,
    "rating": 0.9926,
    "ranking": 15,
    "classYear": 2007,
    "hometown": "Chicago",
    "state": "IL",
    "country": "USA",
    "height": "6-4",
    "weight": 230,
    "lat": 41.8755616,
    "lng": -87.6244212,
    "school": "Simeon",
    "committedTo": "Illinois",
    "status": "committed",
    "source": "cfbd"
  },
  {
    "id": "cfbd_161644",
    "name": "Ronald Johnson",
    "position": "CB",
    "positionRaw": "CB",
    "stars": 5,
    "rating": 0.9923,
    "ranking": 16,
    "classYear": 2007,
    "hometown": "Muskegon",
    "state": "MI",
    "country": "USA",
    "height": "6-0",
    "weight": 177,
    "lat": 43.2341813,
    "lng": -86.2483921,
    "school": "Muskegon",
    "committedTo": "USC",
    "status": "committed",
    "source": "cfbd"
  },
  {
    "id": "cfbd_161645",
    "name": "Tyrod Taylor",
    "position": "QB",
    "positionRaw": "DUAL",
    "stars": 5,
    "rating": 0.9914,
    "ranking": 17,
    "classYear": 2007,
    "hometown": "Hampton",
    "state": "VA",
    "country": "USA",
    "height": "6-2",
    "weight": 185,
    "lat": 37.0520315,
    "lng": -76.2856365,
    "school": "Hampton",
    "committedTo": "Virginia Tech",
    "status": "committed",
    "source": "cfbd"
  },
  {
    "id": "cfbd_161646",
    "name": "James Wilson",
    "position": "OL",
    "positionRaw": "OT",
    "stars": 5,
    "rating": 0.9896,
    "ranking": 18,
    "classYear": 2007,
    "hometown": "Ponte Vedra Beach",
    "state": "FL",
    "country": "USA",
    "height": "6-4",
    "weight": 325,
    "lat": 30.2396865,
    "lng": -81.3856384,
    "school": "Nease",
    "committedTo": "Florida",
    "status": "committed",
    "source": "cfbd"
  },
  {
    "id": "cfbd_161647",
    "name": "Aaron Corp",
    "position": "QB",
    "positionRaw": "PRO",
    "stars": 5,
    "rating": 0.9884,
    "ranking": 19,
    "classYear": 2007,
    "hometown": "Orange",
    "state": "CA",
    "country": "USA",
    "height": "6-4",
    "weight": 185,
    "lat": 33.7872568,
    "lng": -117.8503088,
    "school": "Orange Lutheran",
    "committedTo": "USC",
    "status": "committed",
    "source": "cfbd"
  },
  {
    "id": "cfbd_161648",
    "name": "Torrey Davis",
    "position": "DL",
    "positionRaw": "DT",
    "stars": 5,
    "rating": 0.9878,
    "ranking": 20,
    "classYear": 2007,
    "hometown": "Seffner",
    "state": "FL",
    "country": "USA",
    "height": "6-4",
    "weight": 285,
    "lat": 27.998541000000003,
    "lng": -82.27488400114905,
    "school": "Armwood",
    "committedTo": "Florida",
    "status": "committed",
    "source": "cfbd"
  },
  {
    "id": "cfbd_161649",
    "name": "John Chiles",
    "position": "ATH",
    "positionRaw": "ATH",
    "stars": 5,
    "rating": 0.9875,
    "ranking": 21,
    "classYear": 2007,
    "hometown": "Mansfield",
    "state": "TX",
    "country": "USA",
    "height": "5-1",
    "weight": 195,
    "lat": 32.5631924,
    "lng": -97.1416768,
    "school": "Mansfield",
    "committedTo": "Texas",
    "status": "committed",
    "source": "cfbd"
  },
  {
    "id": "cfbd_161650",
    "name": "Ben Martin",
    "position": "EDGE",
    "positionRaw": "SDE",
    "stars": 5,
    "rating": 0.9874,
    "ranking": 22,
    "classYear": 2007,
    "hometown": "Cincinnati",
    "state": "OH",
    "country": "USA",
    "height": "6-5",
    "weight": 251,
    "lat": 39.1014537,
    "lng": -84.5124602,
    "school": "La Salle",
    "committedTo": "Tennessee",
    "status": "committed",
    "source": "cfbd"
  },
  {
    "id": "cfbd_161651",
    "name": "Deonte Thompson",
    "position": "WR",
    "positionRaw": "WR",
    "stars": 5,
    "rating": 0.9872,
    "ranking": 23,
    "classYear": 2007,
    "hometown": "Belle Glade",
    "state": "FL",
    "country": "USA",
    "height": "5-11",
    "weight": 200,
    "lat": 26.6845104,
    "lng": -80.6675577,
    "school": "Glades Central",
    "committedTo": "Florida",
    "status": "committed",
    "source": "cfbd"
  },
  {
    "id": "cfbd_161652",
    "name": "Dwight Jones",
    "position": "WR",
    "positionRaw": "WR",
    "stars": 5,
    "rating": 0.9866,
    "ranking": 24,
    "classYear": 2007,
    "hometown": "Chatham",
    "state": "VA",
    "country": "USA",
    "height": "6-5",
    "weight": 210,
    "lat": 36.8256943,
    "lng": -79.3980806,
    "school": "Hugh M Cummings",
    "committedTo": "North Carolina",
    "status": "committed",
    "source": "cfbd"
  },
  {
    "id": "cfbd_161653",
    "name": "Ryan Miller",
    "position": "OL",
    "positionRaw": "OT",
    "stars": 5,
    "rating": 0.9859,
    "ranking": 25,
    "classYear": 2007,
    "hometown": "Littleton",
    "state": "CO",
    "country": "USA",
    "height": "6-7",
    "weight": 289,
    "lat": 39.613321,
    "lng": -105.0166498,
    "school": "Columbine",
    "committedTo": "Colorado",
    "status": "committed",
    "source": "cfbd"
  },
  {
    "id": "cfbd_161654",
    "name": "Cam Newton",
    "position": "QB",
    "positionRaw": "DUAL",
    "stars": 5,
    "rating": 0.985,
    "ranking": 26,
    "classYear": 2007,
    "hometown": "Atlanta",
    "state": "GA",
    "country": "USA",
    "height": "6-5",
    "weight": 235,
    "lat": 33.7490987,
    "lng": -84.3901849,
    "school": "Westlake",
    "committedTo": "Florida",
    "status": "committed",
    "source": "cfbd"
  },
  {
    "id": "cfbd_161655",
    "name": "Curtis Brown",
    "position": "CB",
    "positionRaw": "CB",
    "stars": 5,
    "rating": 0.9849,
    "ranking": 27,
    "classYear": 2007,
    "hometown": "Gilmer",
    "state": "TX",
    "country": "USA",
    "height": "6-0",
    "weight": 174,
    "lat": 32.7312256,
    "lng": -94.9469309,
    "school": "Gilmer",
    "committedTo": "Texas",
    "status": "committed",
    "source": "cfbd"
  },
  {
    "id": "cfbd_161656",
    "name": "Eugene Clifford",
    "position": "S",
    "positionRaw": "S",
    "stars": 5,
    "rating": 0.9849,
    "ranking": 28,
    "classYear": 2007,
    "hometown": "Cincinnati",
    "state": "OH",
    "country": "USA",
    "height": "6-2",
    "weight": 190,
    "lat": 39.1014537,
    "lng": -84.5124602,
    "school": "Colerain",
    "committedTo": "Ohio State",
    "status": "committed",
    "source": "cfbd"
  },
  {
    "id": "cfbd_161657",
    "name": "Donovan Warren",
    "position": "CB",
    "positionRaw": "CB",
    "stars": 5,
    "rating": 0.9845,
    "ranking": 29,
    "classYear": 2007,
    "hometown": "Long Beach",
    "state": "CA",
    "country": "USA",
    "height": "6-0",
    "weight": 175,
    "lat": 33.7690164,
    "lng": -118.1916048,
    "school": "Polytechnic",
    "committedTo": "Michigan",
    "status": "committed",
    "source": "cfbd"
  },
  {
    "id": "cfbd_161658",
    "name": "John Brantley",
    "position": "QB",
    "positionRaw": "PRO",
    "stars": 5,
    "rating": 0.9842,
    "ranking": 30,
    "classYear": 2007,
    "hometown": "Ocala",
    "state": "FL",
    "country": "USA",
    "height": "6-3",
    "weight": 220,
    "lat": 29.1871986,
    "lng": -82.1400923,
    "school": "Trinity Catholic",
    "committedTo": "Florida",
    "status": "committed",
    "source": "cfbd"
  },
  {
    "id": "cfbd_161659",
    "name": "Duval Kamara",
    "position": "WR",
    "positionRaw": "WR",
    "stars": 5,
    "rating": 0.9834,
    "ranking": 31,
    "classYear": 2007,
    "hometown": "Hoboken",
    "state": "NJ",
    "country": "USA",
    "height": "6-5",
    "weight": 209,
    "lat": 40.7433066,
    "lng": -74.0323752,
    "school": "Hoboken",
    "committedTo": "Notre Dame",
    "status": "committed",
    "source": "cfbd"
  },
  {
    "id": "cfbd_161660",
    "name": "Michael McNeil",
    "position": "S",
    "positionRaw": "S",
    "stars": 4,
    "rating": 0.9818,
    "ranking": 32,
    "classYear": 2007,
    "hometown": "Mobile",
    "state": "AL",
    "country": "USA",
    "height": "6-2",
    "weight": 200,
    "lat": 30.6943566,
    "lng": -88.0430541,
    "school": "WP Davidson",
    "committedTo": "Auburn",
    "status": "committed",
    "source": "cfbd"
  },
  {
    "id": "cfbd_161661",
    "name": "Austin Box",
    "position": "EDGE",
    "positionRaw": "OLB",
    "stars": 4,
    "rating": 0.9817,
    "ranking": 33,
    "classYear": 2007,
    "hometown": "Enid",
    "state": "OK",
    "country": "USA",
    "height": "6-3",
    "weight": 215,
    "lat": 36.3967623,
    "lng": -97.8791341,
    "school": "Enid",
    "committedTo": "Oklahoma",
    "status": "committed",
    "source": "cfbd"
  },
  {
    "id": "cfbd_161662",
    "name": "Caleb King",
    "position": "RB",
    "positionRaw": "RB",
    "stars": 4,
    "rating": 0.9816,
    "ranking": 34,
    "classYear": 2007,
    "hometown": "Norcross",
    "state": "GA",
    "country": "USA",
    "height": "5-11",
    "weight": 217,
    "lat": 33.9412127,
    "lng": -84.2135309,
    "school": "Greater Atlanta Christian School",
    "committedTo": "Georgia",
    "status": "committed",
    "source": "cfbd"
  },
  {
    "id": "cfbd_161663",
    "name": "Aaron Hernandez",
    "position": "TE",
    "positionRaw": "TE",
    "stars": 4,
    "rating": 0.9814,
    "ranking": 35,
    "classYear": 2007,
    "hometown": "Bristol",
    "state": "CT",
    "country": "USA",
    "height": "6-4",
    "weight": 235,
    "lat": 41.6735209,
    "lng": -72.9464859,
    "school": "Bristol Central",
    "committedTo": "Florida",
    "status": "committed",
    "source": "cfbd"
  },
  {
    "id": "cfbd_161664",
    "name": "Cliff Matthews",
    "position": "EDGE",
    "positionRaw": "WDE",
    "stars": 4,
    "rating": 0.9812,
    "ranking": 36,
    "classYear": 2007,
    "hometown": "Cheraw",
    "state": "SC",
    "country": "USA",
    "height": "6-4",
    "weight": 268,
    "lat": 34.6976564,
    "lng": -79.8833971,
    "school": "Cheraw",
    "committedTo": "South Carolina",
    "status": "committed",
    "source": "cfbd"
  },
  {
    "id": "cfbd_161665",
    "name": "Marshall Jones",
    "position": "S",
    "positionRaw": "S",
    "stars": 4,
    "rating": 0.9811,
    "ranking": 37,
    "classYear": 2007,
    "hometown": "Westlake Village",
    "state": "CA",
    "country": "USA",
    "height": "6-0",
    "weight": 185,
    "lat": 34.1460234,
    "lng": -118.8061794,
    "school": "Oaks Christian",
    "committedTo": "USC",
    "status": "committed",
    "source": "cfbd"
  },
  {
    "id": "cfbd_161666",
    "name": "Chris Culliver",
    "position": "CB",
    "positionRaw": "CB",
    "stars": 4,
    "rating": 0.981,
    "ranking": 38,
    "classYear": 2007,
    "hometown": "Garner",
    "state": "NC",
    "country": "USA",
    "height": "6-1",
    "weight": 201,
    "lat": 35.7112642,
    "lng": -78.6141709,
    "school": "Garner",
    "committedTo": "South Carolina",
    "status": "committed",
    "source": "cfbd"
  },
  {
    "id": "cfbd_161667",
    "name": "Chris Donald",
    "position": "EDGE",
    "positionRaw": "OLB",
    "stars": 4,
    "rating": 0.9808,
    "ranking": 39,
    "classYear": 2007,
    "hometown": "Huntingdon",
    "state": "TN",
    "country": "USA",
    "height": "6-2",
    "weight": 220,
    "lat": 36.0006178,
    "lng": -88.4281063,
    "school": "Huntingdon",
    "committedTo": "Tennessee",
    "status": "committed",
    "source": "cfbd"
  },
  {
    "id": "cfbd_161668",
    "name": "DeAngelo Benton",
    "position": "WR",
    "positionRaw": "WR",
    "stars": 4,
    "rating": 0.9802,
    "ranking": 40,
    "classYear": 2007,
    "hometown": "Bastrop",
    "state": "LA",
    "country": "USA",
    "height": "6-2",
    "weight": 203,
    "lat": 32.7761446,
    "lng": -91.9082967,
    "school": "Bastrop",
    "committedTo": "LSU",
    "status": "committed",
    "source": "cfbd"
  },
  {
    "id": "cfbd_161669",
    "name": "Kristofer O'Dowd",
    "position": "OL",
    "positionRaw": "OG",
    "stars": 4,
    "rating": 0.9797,
    "ranking": 41,
    "classYear": 2007,
    "hometown": "Tucson",
    "state": "AZ",
    "country": "USA",
    "height": "6-5",
    "weight": 315,
    "lat": 32.2228765,
    "lng": -110.9748477,
    "school": "Salpointe Catholic",
    "committedTo": "USC",
    "status": "committed",
    "source": "cfbd"
  },
  {
    "id": "cfbd_161670",
    "name": "Allen Bailey",
    "position": "EDGE",
    "positionRaw": "SDE",
    "stars": 4,
    "rating": 0.9793,
    "ranking": 42,
    "classYear": 2007,
    "hometown": "Darien",
    "state": "GA",
    "country": "USA",
    "height": "6-4",
    "weight": 255,
    "lat": 31.3702255,
    "lng": -81.4339903,
    "school": "McIntosh County Academy",
    "committedTo": "Miami",
    "status": "committed",
    "source": "cfbd"
  },
  {
    "id": "cfbd_161671",
    "name": "Major Wright",
    "position": "S",
    "positionRaw": "S",
    "stars": 4,
    "rating": 0.9788,
    "ranking": 43,
    "classYear": 2007,
    "hometown": "Fort Lauderdale",
    "state": "FL",
    "country": "USA",
    "height": "6-1",
    "weight": 200,
    "lat": 26.1223084,
    "lng": -80.1433786,
    "school": "St. Thomas Aquinas",
    "committedTo": "Florida",
    "status": "committed",
    "source": "cfbd"
  },
  {
    "id": "cfbd_161672",
    "name": "Gary Gray",
    "position": "CB",
    "positionRaw": "CB",
    "stars": 4,
    "rating": 0.9787,
    "ranking": 44,
    "classYear": 2007,
    "hometown": "Columbia",
    "state": "SC",
    "country": "USA",
    "height": "5-11",
    "weight": 163,
    "lat": 34.0007493,
    "lng": -81.0343313,
    "school": "Richland Northeast",
    "committedTo": "Notre Dame",
    "status": "committed",
    "source": "cfbd"
  },
  {
    "id": "cfbd_161673",
    "name": "Chris Rainey",
    "position": "RB",
    "positionRaw": "RB",
    "stars": 4,
    "rating": 0.9787,
    "ranking": 45,
    "classYear": 2007,
    "hometown": "Lakeland",
    "state": "FL",
    "country": "USA",
    "height": "5-9",
    "weight": 183,
    "lat": 28.0394654,
    "lng": -81.9498042,
    "school": "Lakeland",
    "committedTo": "Florida",
    "status": "committed",
    "source": "cfbd"
  },
  {
    "id": "cfbd_161674",
    "name": "Richetti Jones",
    "position": "EDGE",
    "positionRaw": "SDE",
    "stars": 4,
    "rating": 0.9786,
    "ranking": 46,
    "classYear": 2007,
    "hometown": "Dallas",
    "state": "TX",
    "country": "USA",
    "height": "6-3",
    "weight": 234,
    "lat": 32.7762719,
    "lng": -96.7968559,
    "school": "Lincoln",
    "committedTo": "Oklahoma State",
    "status": "committed",
    "source": "cfbd"
  },
  {
    "id": "cfbd_161675",
    "name": "Lee Ziemba",
    "position": "OL",
    "positionRaw": "OT",
    "stars": 4,
    "rating": 0.9783,
    "ranking": 47,
    "classYear": 2007,
    "hometown": "Rogers",
    "state": "AR",
    "country": "USA",
    "height": "6-7",
    "weight": 295,
    "lat": 36.3320197,
    "lng": -94.1185366,
    "school": "Rogers",
    "committedTo": "Auburn",
    "status": "committed",
    "source": "cfbd"
  },
  {
    "id": "cfbd_161676",
    "name": "Dez Bryant",
    "position": "WR",
    "positionRaw": "WR",
    "stars": 4,
    "rating": 0.9783,
    "ranking": 48,
    "classYear": 2007,
    "hometown": "Lufkin",
    "state": "TX",
    "country": "USA",
    "height": "6-1",
    "weight": 200,
    "lat": 31.3386242,
    "lng": -94.7288558,
    "school": "Lufkin",
    "committedTo": "Oklahoma State",
    "status": "committed",
    "source": "cfbd"
  },
  {
    "id": "cfbd_161677",
    "name": "Jerimy Finch",
    "position": "S",
    "positionRaw": "S",
    "stars": 4,
    "rating": 0.9782,
    "ranking": 49,
    "classYear": 2007,
    "hometown": "Indianapolis",
    "state": "IN",
    "country": "USA",
    "height": "6-2",
    "weight": 205,
    "lat": 39.7683331,
    "lng": -86.1583502,
    "school": "Warren Central",
    "committedTo": "Florida",
    "status": "committed",
    "source": "cfbd"
  },
  {
    "id": "cfbd_161678",
    "name": "Dionte Allen",
    "position": "CB",
    "positionRaw": "CB",
    "stars": 4,
    "rating": 0.9781,
    "ranking": 50,
    "classYear": 2007,
    "hometown": "West Bloomfield",
    "state": "MI",
    "country": "USA",
    "height": "5-1",
    "weight": 175,
    "lat": 42.5679,
    "lng": -83.3733,
    "school": "St. Mary's",
    "committedTo": "Florida State",
    "status": "committed",
    "source": "cfbd"
  },
  {
    "id": "cfbd_161679",
    "name": "Kerry Murphy",
    "position": "DL",
    "positionRaw": "DT",
    "stars": 4,
    "rating": 0.9771,
    "ranking": 51,
    "classYear": 2007,
    "hometown": "Hoover",
    "state": "AL",
    "country": "USA",
    "height": "6-4",
    "weight": 319,
    "lat": 33.3848933,
    "lng": -86.8070484,
    "school": "Hoover",
    "committedTo": "Alabama",
    "status": "committed",
    "source": "cfbd"
  },
  {
    "id": "cfbd_161680",
    "name": "Lennon Creer",
    "position": "RB",
    "positionRaw": "RB",
    "stars": 4,
    "rating": 0.9765,
    "ranking": 52,
    "classYear": 2007,
    "hometown": "Tatum",
    "state": "TX",
    "country": "USA",
    "height": "6-1",
    "weight": 200,
    "lat": 32.315053,
    "lng": -94.5163729,
    "school": "Lawrence Free State",
    "committedTo": "Tennessee",
    "status": "committed",
    "source": "cfbd"
  },
  {
    "id": "cfbd_161681",
    "name": "Martin Coleman",
    "position": "OL",
    "positionRaw": "OT",
    "stars": 4,
    "rating": 0.9762,
    "ranking": 53,
    "classYear": 2007,
    "hometown": "Huntington Beach",
    "state": "CA",
    "country": "USA",
    "height": "6-5",
    "weight": 290,
    "lat": 33.6783336,
    "lng": -118.0000166,
    "school": "Edison",
    "committedTo": "USC",
    "status": "committed",
    "source": "cfbd"
  },
  {
    "id": "cfbd_161682",
    "name": "DaJohn Harris",
    "position": "DL",
    "positionRaw": "DT",
    "stars": 4,
    "rating": 0.9761,
    "ranking": 54,
    "classYear": 2007,
    "hometown": "Gardena",
    "state": "CA",
    "country": "USA",
    "height": "6-4",
    "weight": 270,
    "lat": 33.8963593,
    "lng": -118.3053037,
    "school": "Junipero Serra",
    "committedTo": "USC",
    "status": "committed",
    "source": "cfbd"
  },
  {
    "id": "cfbd_161683",
    "name": "Anthony Davis",
    "position": "OL",
    "positionRaw": "OT",
    "stars": 4,
    "rating": 0.976,
    "ranking": 55,
    "classYear": 2007,
    "hometown": "Piscataway",
    "state": "NJ",
    "country": "USA",
    "height": "6-5",
    "weight": 330,
    "lat": 40.5462553,
    "lng": -74.4660408,
    "school": "Piscataway",
    "committedTo": "Rutgers",
    "status": "committed",
    "source": "cfbd"
  },
  {
    "id": "cfbd_161684",
    "name": "Stephen Garcia",
    "position": "QB",
    "positionRaw": "PRO",
    "stars": 4,
    "rating": 0.9759,
    "ranking": 56,
    "classYear": 2007,
    "hometown": "Tampa",
    "state": "FL",
    "country": "USA",
    "height": "6-2",
    "weight": 227,
    "lat": 27.9477595,
    "lng": -82.458444,
    "school": "Jefferson",
    "committedTo": "South Carolina",
    "status": "committed",
    "source": "cfbd"
  },
  {
    "id": "cfbd_161685",
    "name": "Mike Ragone",
    "position": "TE",
    "positionRaw": "TE",
    "stars": 4,
    "rating": 0.9758,
    "ranking": 57,
    "classYear": 2007,
    "hometown": "Cherry Hill",
    "state": "NJ",
    "country": "USA",
    "height": "6-4",
    "weight": 221,
    "lat": 39.9348351,
    "lng": -75.0307264,
    "school": "Camden Catholic",
    "committedTo": "Notre Dame",
    "status": "committed",
    "source": "cfbd"
  },
  {
    "id": "cfbd_161686",
    "name": "Matt Romine",
    "position": "OL",
    "positionRaw": "OT",
    "stars": 4,
    "rating": 0.9751,
    "ranking": 58,
    "classYear": 2007,
    "hometown": "Tulsa",
    "state": "OK",
    "country": "USA",
    "height": "6-6",
    "weight": 285,
    "lat": 36.1556805,
    "lng": -95.9929113,
    "school": "Union",
    "committedTo": "Notre Dame",
    "status": "committed",
    "source": "cfbd"
  },
  {
    "id": "cfbd_161687",
    "name": "John Clay",
    "position": "RB",
    "positionRaw": "RB",
    "stars": 4,
    "rating": 0.9751,
    "ranking": 59,
    "classYear": 2007,
    "hometown": "Racine",
    "state": "WI",
    "country": "USA",
    "height": "6-1",
    "weight": 225,
    "lat": 42.7260523,
    "lng": -87.7825242,
    "school": "Park",
    "committedTo": "Wisconsin",
    "status": "committed",
    "source": "cfbd"
  },
  {
    "id": "cfbd_161688",
    "name": "Chris Strong",
    "position": "EDGE",
    "positionRaw": "SDE",
    "stars": 4,
    "rating": 0.973,
    "ranking": 60,
    "classYear": 2007,
    "hometown": "Batesville",
    "state": "MS",
    "country": "USA",
    "height": "6-3",
    "weight": 250,
    "lat": 34.3114982,
    "lng": -89.9442567,
    "school": "South Panola",
    "committedTo": "Ole Miss",
    "status": "committed",
    "source": "cfbd"
  },
  {
    "id": "cfbd_161689",
    "name": "Joseph Barksdale",
    "position": "DL",
    "positionRaw": "DT",
    "stars": 4,
    "rating": 0.9721,
    "ranking": 61,
    "classYear": 2007,
    "hometown": "Detroit",
    "state": "MI",
    "country": "USA",
    "height": "6-6",
    "weight": 325,
    "lat": 42.3315509,
    "lng": -83.0466403,
    "school": "Cass Technical",
    "committedTo": "LSU",
    "status": "committed",
    "source": "cfbd"
  },
  {
    "id": "cfbd_161690",
    "name": "Michael Huey",
    "position": "OL",
    "positionRaw": "OG",
    "stars": 4,
    "rating": 0.9716,
    "ranking": 62,
    "classYear": 2007,
    "hometown": "Kilgore",
    "state": "TX",
    "country": "USA",
    "height": "6-5",
    "weight": 290,
    "lat": 32.3860733,
    "lng": -94.8758518,
    "school": "Kilgore",
    "committedTo": "Texas",
    "status": "committed",
    "source": "cfbd"
  },
  {
    "id": "cfbd_161691",
    "name": "Aron White",
    "position": "TE",
    "positionRaw": "TE",
    "stars": 4,
    "rating": 0.9713,
    "ranking": 63,
    "classYear": 2007,
    "hometown": "Columbia",
    "state": "MO",
    "country": "USA",
    "height": "6-4",
    "weight": 213,
    "lat": 38.951883,
    "lng": -92.3337366,
    "school": "Rock Bridge",
    "committedTo": "Georgia",
    "status": "committed",
    "source": "cfbd"
  },
  {
    "id": "cfbd_161692",
    "name": "Bryan Bulaga",
    "position": "OL",
    "positionRaw": "OT",
    "stars": 4,
    "rating": 0.9703,
    "ranking": 64,
    "classYear": 2007,
    "hometown": "Woodstock",
    "state": "IL",
    "country": "USA",
    "height": "6-5",
    "weight": 270,
    "lat": 42.3147529,
    "lng": -88.4474302,
    "school": "Marian Central Catholic",
    "committedTo": "Iowa",
    "status": "committed",
    "source": "cfbd"
  },
  {
    "id": "cfbd_161693",
    "name": "Keenan Robinson",
    "position": "EDGE",
    "positionRaw": "OLB",
    "stars": 4,
    "rating": 0.97,
    "ranking": 65,
    "classYear": 2007,
    "hometown": "Plano",
    "state": "TX",
    "country": "USA",
    "height": "6-3",
    "weight": 211,
    "lat": 33.0136764,
    "lng": -96.6925096,
    "school": "Plano",
    "committedTo": "Texas",
    "status": "committed",
    "source": "cfbd"
  },
  {
    "id": "cfbd_161694",
    "name": "Michael Keck",
    "position": "EDGE",
    "positionRaw": "WDE",
    "stars": 4,
    "rating": 0.9697,
    "ranking": 66,
    "classYear": 2007,
    "hometown": "Harrisonville",
    "state": "MO",
    "country": "USA",
    "height": "6-5",
    "weight": 215,
    "lat": 38.655124,
    "lng": -94.3471072,
    "school": "Harrisonville",
    "committedTo": "Missouri",
    "status": "committed",
    "source": "cfbd"
  },
  {
    "id": "cfbd_161695",
    "name": "Ben Wells",
    "position": "CB",
    "positionRaw": "CB",
    "stars": 4,
    "rating": 0.9695,
    "ranking": 67,
    "classYear": 2007,
    "hometown": "Beaumont",
    "state": "TX",
    "country": "USA",
    "height": "6-1",
    "weight": 185,
    "lat": 30.0860459,
    "lng": -94.1018461,
    "school": "Ozen",
    "committedTo": "Texas",
    "status": "committed",
    "source": "cfbd"
  },
  {
    "id": "cfbd_161696",
    "name": "Gerald Jones",
    "position": "WR",
    "positionRaw": "WR",
    "stars": 4,
    "rating": 0.9689,
    "ranking": 68,
    "classYear": 2007,
    "hometown": "Oklahoma City",
    "state": "OK",
    "country": "USA",
    "height": "6-0",
    "weight": 195,
    "lat": 35.4729886,
    "lng": -97.5170536,
    "school": "Millwood",
    "committedTo": "Tennessee",
    "status": "committed",
    "source": "cfbd"
  },
  {
    "id": "cfbd_161697",
    "name": "Willy Korn",
    "position": "QB",
    "positionRaw": "DUAL",
    "stars": 4,
    "rating": 0.9677,
    "ranking": 69,
    "classYear": 2007,
    "hometown": "Duncan",
    "state": "SC",
    "country": "USA",
    "height": "6-2",
    "weight": 200,
    "lat": 34.9378962,
    "lng": -82.1451096,
    "school": "Byrnes",
    "committedTo": "Clemson",
    "status": "committed",
    "source": "cfbd"
  },
  {
    "id": "cfbd_161698",
    "name": "Cliff Tucker",
    "position": "WR",
    "positionRaw": "WR",
    "stars": 4,
    "rating": 0.9674,
    "ranking": 70,
    "classYear": 2007,
    "hometown": "El Paso",
    "state": "TX",
    "country": "USA",
    "height": "6-4",
    "weight": 185,
    "lat": 31.7754152,
    "lng": -106.4646348,
    "school": "Chapin",
    "committedTo": "Maryland",
    "status": "committed",
    "source": "cfbd"
  },
  {
    "id": "cfbd_161699",
    "name": "Malcolm Williams",
    "position": "WR",
    "positionRaw": "WR",
    "stars": 4,
    "rating": 0.9672,
    "ranking": 71,
    "classYear": 2007,
    "hometown": "Garland",
    "state": "TX",
    "country": "USA",
    "height": "6-3",
    "weight": 205,
    "lat": 32.912624,
    "lng": -96.6388833,
    "school": "Garland",
    "committedTo": "Texas",
    "status": "committed",
    "source": "cfbd"
  },
  {
    "id": "cfbd_161700",
    "name": "Sidell  Corley Jr.",
    "position": "EDGE",
    "positionRaw": "SDE",
    "stars": 4,
    "rating": 0.9666,
    "ranking": 72,
    "classYear": 2007,
    "hometown": "Mobile",
    "state": "AL",
    "country": "USA",
    "height": "6-4",
    "weight": 250,
    "lat": 30.6943566,
    "lng": -88.0430541,
    "school": "McGill Toolen",
    "committedTo": "LSU",
    "status": "committed",
    "source": "cfbd"
  },
  {
    "id": "cfbd_161701",
    "name": "Derrick Morgan",
    "position": "EDGE",
    "positionRaw": "SDE",
    "stars": 4,
    "rating": 0.9655,
    "ranking": 73,
    "classYear": 2007,
    "hometown": "Coatesville",
    "state": "PA",
    "country": "USA",
    "height": "6-4",
    "weight": 260,
    "lat": 39.9831616,
    "lng": -75.8238355,
    "school": "Coatesville Area",
    "committedTo": "Georgia Tech",
    "status": "committed",
    "source": "cfbd"
  },
  {
    "id": "cfbd_161702",
    "name": "John Brown",
    "position": "DL",
    "positionRaw": "DT",
    "stars": 4,
    "rating": 0.9652,
    "ranking": 74,
    "classYear": 2007,
    "hometown": "Lakeland",
    "state": "FL",
    "country": "USA",
    "height": "6-2",
    "weight": 285,
    "lat": 28.0394654,
    "lng": -81.9498042,
    "school": "Lakeland",
    "committedTo": "Florida",
    "status": "committed",
    "source": "cfbd"
  },
  {
    "id": "cfbd_161703",
    "name": "Robert Hughes",
    "position": "RB",
    "positionRaw": "RB",
    "stars": 4,
    "rating": 0.9648,
    "ranking": 75,
    "classYear": 2007,
    "hometown": "Chicago",
    "state": "IL",
    "country": "USA",
    "height": "5-11",
    "weight": 226,
    "lat": 41.8755616,
    "lng": -87.6244212,
    "school": "Hubbard",
    "committedTo": "Notre Dame",
    "status": "committed",
    "source": "cfbd"
  },
  {
    "id": "cfbd_161704",
    "name": "Greg Little",
    "position": "ATH",
    "positionRaw": "ATH",
    "stars": 4,
    "rating": 0.9614,
    "ranking": 76,
    "classYear": 2007,
    "hometown": "Durham",
    "state": "NC",
    "country": "USA",
    "height": "6-2",
    "weight": 214,
    "lat": 35.996653,
    "lng": -78.9018053,
    "school": "Hillside",
    "committedTo": "North Carolina",
    "status": "committed",
    "source": "cfbd"
  },
  {
    "id": "cfbd_161705",
    "name": "Chad Jones",
    "position": "S",
    "positionRaw": "S",
    "stars": 4,
    "rating": 0.9614,
    "ranking": 77,
    "classYear": 2007,
    "hometown": "Baton Rouge",
    "state": "LA",
    "country": "USA",
    "height": "6-3",
    "weight": 230,
    "lat": 30.4459596,
    "lng": -91.18738,
    "school": "Southern Lab",
    "committedTo": "LSU",
    "status": "committed",
    "source": "cfbd"
  },
  {
    "id": "cfbd_161706",
    "name": "Raymond Carter",
    "position": "RB",
    "positionRaw": "RB",
    "stars": 4,
    "rating": 0.9607,
    "ranking": 78,
    "classYear": 2007,
    "hometown": "Los Angeles",
    "state": "CA",
    "country": "USA",
    "height": "5-11",
    "weight": 185,
    "lat": 34.0536909,
    "lng": -118.2427666,
    "school": "Crenshaw",
    "committedTo": "UCLA",
    "status": "committed",
    "source": "cfbd"
  },
  {
    "id": "cfbd_161707",
    "name": "Morgan Burnett",
    "position": "WR",
    "positionRaw": "WR",
    "stars": 4,
    "rating": 0.9603,
    "ranking": 79,
    "classYear": 2007,
    "hometown": "Atlanta",
    "state": "GA",
    "country": "USA",
    "height": "6-2",
    "weight": 185,
    "lat": 33.7490987,
    "lng": -84.3901849,
    "school": "North Clayton",
    "committedTo": "Georgia Tech",
    "status": "committed",
    "source": "cfbd"
  },
  {
    "id": "cfbd_161708",
    "name": "Mark Barnes",
    "position": "ATH",
    "positionRaw": "ATH",
    "stars": 4,
    "rating": 0.9602,
    "ranking": 80,
    "classYear": 2007,
    "hometown": "Columbia",
    "state": "SC",
    "country": "USA",
    "height": "6-2",
    "weight": 195,
    "lat": 34.0007493,
    "lng": -81.0343313,
    "school": "Richland Northeast",
    "committedTo": "South Carolina",
    "status": "committed",
    "source": "cfbd"
  },
  {
    "id": "cfbd_161709",
    "name": "Travian Robertson (player)",
    "position": "DL",
    "positionRaw": "DT",
    "stars": 4,
    "rating": 0.9599,
    "ranking": 81,
    "classYear": 2007,
    "hometown": "Laurinburg",
    "state": "NC",
    "country": "USA",
    "height": "6-4",
    "weight": 293,
    "lat": 34.7740495,
    "lng": -79.4628248,
    "school": "Scotland County",
    "committedTo": "South Carolina",
    "status": "committed",
    "source": "cfbd"
  },
  {
    "id": "cfbd_161710",
    "name": "Marcus Gilchrist",
    "position": "CB",
    "positionRaw": "CB",
    "stars": 4,
    "rating": 0.9596,
    "ranking": 82,
    "classYear": 2007,
    "hometown": "High Point",
    "state": "NC",
    "country": "USA",
    "height": "5-11",
    "weight": 175,
    "lat": 35.9556924,
    "lng": -80.0053176,
    "school": "T Wingate Andrews",
    "committedTo": "Clemson",
    "status": "committed",
    "source": "cfbd"
  },
  {
    "id": "cfbd_161711",
    "name": "Golden Tate",
    "position": "WR",
    "positionRaw": "WR",
    "stars": 4,
    "rating": 0.9594,
    "ranking": 83,
    "classYear": 2007,
    "hometown": "Hendersonville",
    "state": "TN",
    "country": "USA",
    "height": "5-11",
    "weight": 175,
    "lat": 36.3049177,
    "lng": -86.621443,
    "school": "Pope John Paul II",
    "committedTo": "Notre Dame",
    "status": "committed",
    "source": "cfbd"
  },
  {
    "id": "cfbd_161712",
    "name": "Mike Paulus",
    "position": "QB",
    "positionRaw": "PRO",
    "stars": 4,
    "rating": 0.9592,
    "ranking": 84,
    "classYear": 2007,
    "hometown": "Syracuse",
    "state": "NY",
    "country": "USA",
    "height": "6-5",
    "weight": 220,
    "lat": 43.0481221,
    "lng": -76.1474244,
    "school": "Christian Brothers Academy",
    "committedTo": "North Carolina",
    "status": "committed",
    "source": "cfbd"
  },
  {
    "id": "cfbd_161713",
    "name": "Christian Scott",
    "position": "S",
    "positionRaw": "S",
    "stars": 4,
    "rating": 0.9573,
    "ranking": 85,
    "classYear": 2007,
    "hometown": "Dallas",
    "state": "TX",
    "country": "USA",
    "height": "6-0",
    "weight": 185,
    "lat": 32.7762719,
    "lng": -96.7968559,
    "school": "Skyline",
    "committedTo": "Texas",
    "status": "committed",
    "source": "cfbd"
  },
  {
    "id": "cfbd_161714",
    "name": "Israel Troupe",
    "position": "WR",
    "positionRaw": "WR",
    "stars": 4,
    "rating": 0.9568,
    "ranking": 86,
    "classYear": 2007,
    "hometown": "Tifton",
    "state": "GA",
    "country": "USA",
    "height": "6-0",
    "weight": 200,
    "lat": 31.4522765,
    "lng": -83.5096866,
    "school": "Tift County",
    "committedTo": "Georgia",
    "status": "committed",
    "source": "cfbd"
  },
  {
    "id": "cfbd_161715",
    "name": "Jonathan Dwyer",
    "position": "RB",
    "positionRaw": "RB",
    "stars": 4,
    "rating": 0.9532,
    "ranking": 87,
    "classYear": 2007,
    "hometown": "Marietta",
    "state": "GA",
    "country": "USA",
    "height": "6-0",
    "weight": 205,
    "lat": 33.9528472,
    "lng": -84.5496148,
    "school": "Kell",
    "committedTo": "Georgia Tech",
    "status": "committed",
    "source": "cfbd"
  },
  {
    "id": "cfbd_161716",
    "name": "Pat Bostick",
    "position": "QB",
    "positionRaw": "PRO",
    "stars": 4,
    "rating": 0.953,
    "ranking": 88,
    "classYear": 2007,
    "hometown": "Lancaster",
    "state": "PA",
    "country": "USA",
    "height": "6-3",
    "weight": 220,
    "lat": 40.03813,
    "lng": -76.3056686,
    "school": "Manheim Township",
    "committedTo": "Pittsburgh",
    "status": "committed",
    "source": "cfbd"
  },
  {
    "id": "cfbd_161717",
    "name": "Phelon Jones",
    "position": "CB",
    "positionRaw": "CB",
    "stars": 4,
    "rating": 0.9527,
    "ranking": 89,
    "classYear": 2007,
    "hometown": "Mobile",
    "state": "AL",
    "country": "USA",
    "height": "5-11",
    "weight": 194,
    "lat": 30.6943566,
    "lng": -88.0430541,
    "school": "McGill Toolen",
    "committedTo": "LSU",
    "status": "committed",
    "source": "cfbd"
  },
  {
    "id": "cfbd_161718",
    "name": "Derrick Stephens",
    "position": "LB",
    "positionRaw": "ILB",
    "stars": 4,
    "rating": 0.9527,
    "ranking": 90,
    "classYear": 2007,
    "hometown": "Houston",
    "state": "TX",
    "country": "USA",
    "height": "6-3",
    "weight": 240,
    "lat": 29.7589382,
    "lng": -95.3676974,
    "school": "Cy Falls",
    "committedTo": "Texas A&M",
    "status": "committed",
    "source": "cfbd"
  },
  {
    "id": "cfbd_161719",
    "name": "Doug Wiggins",
    "position": "CB",
    "positionRaw": "CB",
    "stars": 4,
    "rating": 0.9525,
    "ranking": 91,
    "classYear": 2007,
    "hometown": "Miami",
    "state": "FL",
    "country": "USA",
    "height": "5-11",
    "weight": 180,
    "lat": 25.7742658,
    "lng": -80.1936589,
    "school": "North Miami Beach Senior",
    "committedTo": "Miami",
    "status": "committed",
    "source": "cfbd"
  },
  {
    "id": "cfbd_161720",
    "name": "Nick Sukay",
    "position": "WR",
    "positionRaw": "WR",
    "stars": 4,
    "rating": 0.9491,
    "ranking": 92,
    "classYear": 2007,
    "hometown": "Greensburg",
    "state": "PA",
    "country": "USA",
    "height": "6-3",
    "weight": 205,
    "lat": 40.3014581,
    "lng": -79.5389289,
    "school": "Greensburg Central Catholic",
    "committedTo": "Penn State",
    "status": "committed",
    "source": "cfbd"
  },
  {
    "id": "cfbd_161721",
    "name": "Michael Williams",
    "position": "S",
    "positionRaw": "S",
    "stars": 4,
    "rating": 0.9489,
    "ranking": 93,
    "classYear": 2007,
    "hometown": "Ventura",
    "state": "CA",
    "country": "USA",
    "height": "5-11",
    "weight": 181,
    "lat": 34.3435092,
    "lng": -119.29560423163717,
    "school": "St. Bonaventure",
    "committedTo": "Michigan",
    "status": "committed",
    "source": "cfbd"
  },
  {
    "id": "cfbd_161722",
    "name": "Andre Jones",
    "position": "DL",
    "positionRaw": "DT",
    "stars": 4,
    "rating": 0.9488,
    "ranking": 94,
    "classYear": 2007,
    "hometown": "El Paso",
    "state": "TX",
    "country": "USA",
    "height": "6-4",
    "weight": 305,
    "lat": 31.7754152,
    "lng": -106.4646348,
    "school": "Andress",
    "committedTo": "Texas",
    "status": "committed",
    "source": "cfbd"
  },
  {
    "id": "cfbd_161723",
    "name": "Brian Maddox",
    "position": "RB",
    "positionRaw": "RB",
    "stars": 4,
    "rating": 0.9478,
    "ranking": 95,
    "classYear": 2007,
    "hometown": "Anderson",
    "state": "SC",
    "country": "USA",
    "height": "5-11",
    "weight": 229,
    "lat": 34.5068601,
    "lng": -82.6506264,
    "school": "T.L. Hanna",
    "committedTo": "South Carolina",
    "status": "committed",
    "source": "cfbd"
  },
  {
    "id": "cfbd_161724",
    "name": "D'Angelo McCray",
    "position": "DL",
    "positionRaw": "DT",
    "stars": 4,
    "rating": 0.9477,
    "ranking": 96,
    "classYear": 2007,
    "hometown": "Jacksonville",
    "state": "FL",
    "country": "USA",
    "height": "6-4",
    "weight": 290,
    "lat": 30.3321838,
    "lng": -81.655651,
    "school": "Andrew Jackson",
    "committedTo": "Illinois",
    "status": "committed",
    "source": "cfbd"
  },
  {
    "id": "cfbd_161725",
    "name": "Tydreke Powell",
    "position": "DL",
    "positionRaw": "DT",
    "stars": 4,
    "rating": 0.947,
    "ranking": 97,
    "classYear": 2007,
    "hometown": "Ahoskie",
    "state": "NC",
    "country": "USA",
    "height": "6-2",
    "weight": 300,
    "lat": 36.2868223,
    "lng": -76.9846808,
    "school": "Hertford County",
    "committedTo": "North Carolina",
    "status": "committed",
    "source": "cfbd"
  },
  {
    "id": "cfbd_161726",
    "name": "Justin Trattou",
    "position": "EDGE",
    "positionRaw": "WDE",
    "stars": 4,
    "rating": 0.9468,
    "ranking": 98,
    "classYear": 2007,
    "hometown": "Ramsey",
    "state": "NJ",
    "country": "USA",
    "height": "6-4",
    "weight": 255,
    "lat": 41.0573188,
    "lng": -74.1409771,
    "school": "Don Bosco Prep",
    "committedTo": "Florida",
    "status": "committed",
    "source": "cfbd"
  },
  {
    "id": "cfbd_161727",
    "name": "Stefen Wisniewski",
    "position": "OL",
    "positionRaw": "OG",
    "stars": 4,
    "rating": 0.9463,
    "ranking": 99,
    "classYear": 2007,
    "hometown": "Pittsburgh",
    "state": "PA",
    "country": "USA",
    "height": "6-3",
    "weight": 306,
    "lat": 40.4416941,
    "lng": -79.9900861,
    "school": "Central Catholic",
    "committedTo": "Penn State",
    "status": "committed",
    "source": "cfbd"
  },
  {
    "id": "cfbd_161728",
    "name": "Antwain Easterling",
    "position": "RB",
    "positionRaw": "RB",
    "stars": 4,
    "rating": 0.9463,
    "ranking": 100,
    "classYear": 2007,
    "hometown": "Miami",
    "state": "FL",
    "country": "USA",
    "height": "5-11",
    "weight": 195,
    "lat": 25.7742658,
    "lng": -80.1936589,
    "school": "Northwestern",
    "committedTo": "Southern Miss",
    "status": "committed",
    "source": "cfbd"
  },
  {
    "id": "cfbd_161729",
    "name": "Kerry Neal",
    "position": "EDGE",
    "positionRaw": "OLB",
    "stars": 4,
    "rating": 0.9458,
    "ranking": 101,
    "classYear": 2007,
    "hometown": "Bunn",
    "state": "NC",
    "country": "USA",
    "height": "6-3",
    "weight": 234,
    "lat": 35.959537,
    "lng": -78.2543185,
    "school": "Bunn",
    "committedTo": "Notre Dame",
    "status": "committed",
    "source": "cfbd"
  },
  {
    "id": "cfbd_161730",
    "name": "Rob Gronkowski",
    "position": "TE",
    "positionRaw": "TE",
    "stars": 4,
    "rating": 0.9454,
    "ranking": 102,
    "classYear": 2007,
    "hometown": "Pittsburgh",
    "state": "PA",
    "country": "USA",
    "height": "6-6",
    "weight": 235,
    "lat": 40.4416941,
    "lng": -79.9900861,
    "school": "Woodland Hills",
    "committedTo": "Arizona",
    "status": "committed",
    "source": "cfbd"
  },
  {
    "id": "cfbd_161731",
    "name": "D.J. Stafford",
    "position": "DL",
    "positionRaw": "DT",
    "stars": 4,
    "rating": 0.9452,
    "ranking": 103,
    "classYear": 2007,
    "hometown": "LaGrange",
    "state": "GA",
    "country": "USA",
    "height": "6-3",
    "weight": 270,
    "lat": 33.039291,
    "lng": -85.0313269,
    "school": "LaGrange",
    "committedTo": "Kentucky",
    "status": "committed",
    "source": "cfbd"
  },
  {
    "id": "cfbd_161732",
    "name": "Stefoin Francois",
    "position": "S",
    "positionRaw": "S",
    "stars": 4,
    "rating": 0.9447,
    "ranking": 104,
    "classYear": 2007,
    "hometown": "Reserve",
    "state": "LA",
    "country": "USA",
    "height": "6-1",
    "weight": 190,
    "lat": 30.0538131,
    "lng": -90.5517534,
    "school": "East St. John",
    "committedTo": "LSU",
    "status": "committed",
    "source": "cfbd"
  },
  {
    "id": "cfbd_161733",
    "name": "Ras-I Dowling",
    "position": "CB",
    "positionRaw": "CB",
    "stars": 4,
    "rating": 0.9444,
    "ranking": 105,
    "classYear": 2007,
    "hometown": "Chesapeake",
    "state": "VA",
    "country": "USA",
    "height": "6-2",
    "weight": 200,
    "lat": 36.7183708,
    "lng": -76.2466798,
    "school": "Deep Creek",
    "committedTo": "Virginia",
    "status": "committed",
    "source": "cfbd"
  },
  {
    "id": "cfbd_161734",
    "name": "Ryan Pugh",
    "position": "OL",
    "positionRaw": "OC",
    "stars": 4,
    "rating": 0.9442,
    "ranking": 106,
    "classYear": 2007,
    "hometown": "Hoover",
    "state": "AL",
    "country": "USA",
    "height": "6-2",
    "weight": 275,
    "lat": 33.3848933,
    "lng": -86.8070484,
    "school": "Hoover",
    "committedTo": "Auburn",
    "status": "committed",
    "source": "cfbd"
  },
  {
    "id": "cfbd_161735",
    "name": "Christian Ballard",
    "position": "EDGE",
    "positionRaw": "SDE",
    "stars": 4,
    "rating": 0.9439,
    "ranking": 107,
    "classYear": 2007,
    "hometown": "Lawrence",
    "state": "KS",
    "country": "USA",
    "height": "6-4",
    "weight": 275,
    "lat": 38.9719384,
    "lng": -95.2359496,
    "school": "Lawrence Free State",
    "committedTo": "Iowa",
    "status": "committed",
    "source": "cfbd"
  },
  {
    "id": "cfbd_161736",
    "name": "Logan Gray",
    "position": "QB",
    "positionRaw": "DUAL",
    "stars": 4,
    "rating": 0.9435,
    "ranking": 108,
    "classYear": 2007,
    "hometown": "Columbia",
    "state": "MO",
    "country": "USA",
    "height": "6-2",
    "weight": 199,
    "lat": 38.951883,
    "lng": -92.3337366,
    "school": "Rock Bridge",
    "committedTo": "Georgia",
    "status": "committed",
    "source": "cfbd"
  },
  {
    "id": "cfbd_161737",
    "name": "Kenny Rowe",
    "position": "EDGE",
    "positionRaw": "WDE",
    "stars": 4,
    "rating": 0.9427,
    "ranking": 109,
    "classYear": 2007,
    "hometown": "Long Beach",
    "state": "CA",
    "country": "USA",
    "height": "6-2",
    "weight": 210,
    "lat": 33.7690164,
    "lng": -118.1916048,
    "school": "Long Beach Poly",
    "committedTo": "Oregon",
    "status": "committed",
    "source": "cfbd"
  },
  {
    "id": "cfbd_161738",
    "name": "Luther Davis",
    "position": "EDGE",
    "positionRaw": "SDE",
    "stars": 4,
    "rating": 0.9425,
    "ranking": 110,
    "classYear": 2007,
    "hometown": "West Monroe",
    "state": "LA",
    "country": "USA",
    "height": "6-3",
    "weight": 279,
    "lat": 32.5184775,
    "lng": -92.1476353,
    "school": "West Monroe",
    "committedTo": "Alabama",
    "status": "committed",
    "source": "cfbd"
  },
  {
    "id": "cfbd_161739",
    "name": "Devon Torrence",
    "position": "CB",
    "positionRaw": "CB",
    "stars": 4,
    "rating": 0.9417,
    "ranking": 111,
    "classYear": 2007,
    "hometown": "Canton",
    "state": "OH",
    "country": "USA",
    "height": "6-1",
    "weight": 200,
    "lat": 40.7989522,
    "lng": -81.3784445,
    "school": "Canton South",
    "committedTo": "Ohio State",
    "status": "committed",
    "source": "cfbd"
  },
  {
    "id": "cfbd_161740",
    "name": "Dewey Elliot",
    "position": "LB",
    "positionRaw": "ILB",
    "stars": 4,
    "rating": 0.9413,
    "ranking": 112,
    "classYear": 2007,
    "hometown": "Fairfield",
    "state": "OH",
    "country": "USA",
    "height": "6-1",
    "weight": 240,
    "lat": 39.3458953,
    "lng": -84.5605031,
    "school": "Fairfield",
    "committedTo": null,
    "status": "uncommitted",
    "source": "cfbd"
  },
  {
    "id": "cfbd_161741",
    "name": "Toney Clemons",
    "position": "WR",
    "positionRaw": "WR",
    "stars": 4,
    "rating": 0.9412,
    "ranking": 113,
    "classYear": 2007,
    "hometown": "New Kensington",
    "state": "PA",
    "country": "USA",
    "height": "6-3",
    "weight": 205,
    "lat": 40.5697893,
    "lng": -79.7647705,
    "school": "Valley",
    "committedTo": "Michigan",
    "status": "committed",
    "source": "cfbd"
  },
  {
    "id": "cfbd_161742",
    "name": "Bradley Stephens",
    "position": "RB",
    "positionRaw": "RB",
    "stars": 4,
    "rating": 0.9407,
    "ranking": 114,
    "classYear": 2007,
    "hometown": "McAllen",
    "state": "TX",
    "country": "USA",
    "height": "5-10",
    "weight": 185,
    "lat": 26.2043691,
    "lng": -98.230082,
    "school": "Memorial",
    "committedTo": "Texas A&M",
    "status": "committed",
    "source": "cfbd"
  },
  {
    "id": "cfbd_161743",
    "name": "Brian Price",
    "position": "DL",
    "positionRaw": "DT",
    "stars": 4,
    "rating": 0.9406,
    "ranking": 115,
    "classYear": 2007,
    "hometown": "Los Angeles",
    "state": "CA",
    "country": "USA",
    "height": "6-2",
    "weight": 285,
    "lat": 34.0536909,
    "lng": -118.2427666,
    "school": "Crenshaw",
    "committedTo": "UCLA",
    "status": "committed",
    "source": "cfbd"
  },
  {
    "id": "cfbd_161744",
    "name": "Joseph Hills",
    "position": "WR",
    "positionRaw": "WR",
    "stars": 4,
    "rating": 0.94,
    "ranking": 116,
    "classYear": 2007,
    "hometown": "Palmetto",
    "state": "FL",
    "country": "USA",
    "height": "6-4",
    "weight": 205,
    "lat": 27.5214269,
    "lng": -82.5723193,
    "school": "Palmetto",
    "committedTo": "South Carolina",
    "status": "committed",
    "source": "cfbd"
  },
  {
    "id": "cfbd_161745",
    "name": "Rolando McClain",
    "position": "LB",
    "positionRaw": "ILB",
    "stars": 4,
    "rating": 0.9398,
    "ranking": 117,
    "classYear": 2007,
    "hometown": "Decatur",
    "state": "AL",
    "country": "USA",
    "height": "6-4",
    "weight": 240,
    "lat": 34.6060203,
    "lng": -86.9838165,
    "school": "Decatur",
    "committedTo": "Alabama",
    "status": "committed",
    "source": "cfbd"
  },
  {
    "id": "cfbd_161746",
    "name": "Brandon Saine",
    "position": "RB",
    "positionRaw": "RB",
    "stars": 4,
    "rating": 0.9396,
    "ranking": 118,
    "classYear": 2007,
    "hometown": "Piqua",
    "state": "OH",
    "country": "USA",
    "height": "6-1",
    "weight": 219,
    "lat": 40.1447732,
    "lng": -84.2424449,
    "school": "Piqua",
    "committedTo": "Ohio State",
    "status": "committed",
    "source": "cfbd"
  },
  {
    "id": "cfbd_161747",
    "name": "Manny Abreu",
    "position": "EDGE",
    "positionRaw": "OLB",
    "stars": 4,
    "rating": 0.9389,
    "ranking": 119,
    "classYear": 2007,
    "hometown": "Union City",
    "state": "NJ",
    "country": "USA",
    "height": "6-4",
    "weight": 230,
    "lat": 40.7795455,
    "lng": -74.0237512,
    "school": "Union City",
    "committedTo": "Rutgers",
    "status": "committed",
    "source": "cfbd"
  },
  {
    "id": "cfbd_161748",
    "name": "Cody Johnson",
    "position": "RB",
    "positionRaw": "RB",
    "stars": 4,
    "rating": 0.9385,
    "ranking": 120,
    "classYear": 2007,
    "hometown": "Waller",
    "state": "TX",
    "country": "USA",
    "height": "5-10",
    "weight": 225,
    "lat": 30.0586951,
    "lng": -95.9264143,
    "school": "Waller",
    "committedTo": "Texas",
    "status": "committed",
    "source": "cfbd"
  },
  {
    "id": "cfbd_161749",
    "name": "Devon Still",
    "position": "DL",
    "positionRaw": "DT",
    "stars": 4,
    "rating": 0.9382,
    "ranking": 121,
    "classYear": 2007,
    "hometown": "Wilmington",
    "state": "DE",
    "country": "USA",
    "height": "6-5",
    "weight": 250,
    "lat": 39.7459468,
    "lng": -75.546589,
    "school": "Douglass School",
    "committedTo": "Penn State",
    "status": "committed",
    "source": "cfbd"
  },
  {
    "id": "cfbd_161750",
    "name": "Kendall Smith",
    "position": "EDGE",
    "positionRaw": "OLB",
    "stars": 4,
    "rating": 0.9378,
    "ranking": 122,
    "classYear": 2007,
    "hometown": "Bushnell",
    "state": "FL",
    "country": "USA",
    "height": "6-1",
    "weight": 210,
    "lat": 28.6644827,
    "lng": -82.1117399,
    "school": "South Sumter",
    "committedTo": "Florida State",
    "status": "committed",
    "source": "cfbd"
  },
  {
    "id": "cfbd_161751",
    "name": "Jaye Howard",
    "position": "DL",
    "positionRaw": "DT",
    "stars": 4,
    "rating": 0.9375,
    "ranking": 123,
    "classYear": 2007,
    "hometown": "Orlando",
    "state": "FL",
    "country": "USA",
    "height": "6-3",
    "weight": 295,
    "lat": 28.5421109,
    "lng": -81.3790304,
    "school": "Jones",
    "committedTo": "Florida",
    "status": "committed",
    "source": "cfbd"
  },
  {
    "id": "cfbd_161752",
    "name": "Robert Marve",
    "position": "QB",
    "positionRaw": "PRO",
    "stars": 4,
    "rating": 0.9373,
    "ranking": 124,
    "classYear": 2007,
    "hometown": "Tampa",
    "state": "FL",
    "country": "USA",
    "height": "6-1",
    "weight": 189,
    "lat": 27.9477595,
    "lng": -82.458444,
    "school": "Plant",
    "committedTo": "Miami",
    "status": "committed",
    "source": "cfbd"
  },
  {
    "id": "cfbd_161753",
    "name": "Ted Laurent",
    "position": "DL",
    "positionRaw": "DT",
    "stars": 4,
    "rating": 0.9371,
    "ranking": 125,
    "classYear": 2007,
    "hometown": "Powder Springs",
    "state": "GA",
    "country": "USA",
    "height": "6-0",
    "weight": 285,
    "lat": 33.8595492,
    "lng": -84.683824,
    "school": "McEachern",
    "committedTo": "Ole Miss",
    "status": "committed",
    "source": "cfbd"
  },
  {
    "id": "cfbd_161754",
    "name": "Scotty Cooper",
    "position": "LB",
    "positionRaw": "ILB",
    "stars": 4,
    "rating": 0.937,
    "ranking": 126,
    "classYear": 2007,
    "hometown": "Lake City",
    "state": "SC",
    "country": "USA",
    "height": "6-1",
    "weight": 206,
    "lat": 30.1896756,
    "lng": -82.6392899,
    "school": "Lake City",
    "committedTo": "Clemson",
    "status": "committed",
    "source": "cfbd"
  },
  {
    "id": "cfbd_161755",
    "name": "Brandon Paul",
    "position": "ATH",
    "positionRaw": "ATH",
    "stars": 4,
    "rating": 0.9366,
    "ranking": 127,
    "classYear": 2007,
    "hometown": "Tallahassee",
    "state": "FL",
    "country": "USA",
    "height": "5-10",
    "weight": 185,
    "lat": 30.4380832,
    "lng": -84.2809332,
    "school": "Lincoln",
    "committedTo": "Florida State",
    "status": "committed",
    "source": "cfbd"
  },
  {
    "id": "cfbd_161756",
    "name": "Armando Allen",
    "position": "RB",
    "positionRaw": "RB",
    "stars": 4,
    "rating": 0.9364,
    "ranking": 128,
    "classYear": 2007,
    "hometown": "Hialeah",
    "state": "FL",
    "country": "USA",
    "height": "5-9",
    "weight": 181,
    "lat": 25.8575963,
    "lng": -80.2781057,
    "school": "Hialeah-Miami Lakes",
    "committedTo": "Notre Dame",
    "status": "committed",
    "source": "cfbd"
  },
  {
    "id": "cfbd_161757",
    "name": "Roderick Davis",
    "position": "WR",
    "positionRaw": "WR",
    "stars": 4,
    "rating": 0.9353,
    "ranking": 129,
    "classYear": 2007,
    "hometown": "Memphis",
    "state": "TN",
    "country": "USA",
    "height": "6-0",
    "weight": 190,
    "lat": 35.1490215,
    "lng": -90.0516285,
    "school": "Wooddale",
    "committedTo": "Ole Miss",
    "status": "committed",
    "source": "cfbd"
  },
  {
    "id": "cfbd_161758",
    "name": "Joe Haden",
    "position": "ATH",
    "positionRaw": "ATH",
    "stars": 4,
    "rating": 0.935,
    "ranking": 130,
    "classYear": 2007,
    "hometown": "Fort Washington",
    "state": "MD",
    "country": "USA",
    "height": "5-11",
    "weight": 190,
    "lat": 38.7125305,
    "lng": -77.0124598,
    "school": "Friendly",
    "committedTo": "Florida",
    "status": "committed",
    "source": "cfbd"
  },
  {
    "id": "cfbd_161759",
    "name": "Trinton Sturdivant",
    "position": "OL",
    "positionRaw": "OT",
    "stars": 4,
    "rating": 0.9343,
    "ranking": 131,
    "classYear": 2007,
    "hometown": "Wadesboro",
    "state": "NC",
    "country": "USA",
    "height": "6-5",
    "weight": 280,
    "lat": 34.9682097,
    "lng": -80.0767266,
    "school": "Anson",
    "committedTo": "Georgia",
    "status": "committed",
    "source": "cfbd"
  },
  {
    "id": "cfbd_161760",
    "name": "T-Bob Hebert",
    "position": "OL",
    "positionRaw": "OC",
    "stars": 4,
    "rating": 0.9336,
    "ranking": 132,
    "classYear": 2007,
    "hometown": "Norcross",
    "state": "GA",
    "country": "USA",
    "height": "6-3",
    "weight": 260,
    "lat": 33.9412127,
    "lng": -84.2135309,
    "school": "Greater Atlanta Christian School",
    "committedTo": "LSU",
    "status": "committed",
    "source": "cfbd"
  },
  {
    "id": "cfbd_161761",
    "name": "Jordan Bernstine",
    "position": "CB",
    "positionRaw": "CB",
    "stars": 4,
    "rating": 0.9333,
    "ranking": 133,
    "classYear": 2007,
    "hometown": "Des Moines",
    "state": "IA",
    "country": "USA",
    "height": "5-11",
    "weight": 205,
    "lat": 41.5910641,
    "lng": -93.6037149,
    "school": "Lincoln",
    "committedTo": null,
    "status": "uncommitted",
    "source": "cfbd"
  },
  {
    "id": "cfbd_161762",
    "name": "Kodi Burns",
    "position": "QB",
    "positionRaw": "DUAL",
    "stars": 4,
    "rating": 0.933,
    "ranking": 134,
    "classYear": 2007,
    "hometown": "Fort Smith",
    "state": "AR",
    "country": "USA",
    "height": "6-2",
    "weight": 207,
    "lat": 35.3872218,
    "lng": -94.4248983,
    "school": "Northside",
    "committedTo": "Auburn",
    "status": "committed",
    "source": "cfbd"
  },
  {
    "id": "cfbd_161763",
    "name": "Mark Dell",
    "position": "WR",
    "positionRaw": "WR",
    "stars": 4,
    "rating": 0.9329,
    "ranking": 135,
    "classYear": 2007,
    "hometown": "Farmington",
    "state": "MI",
    "country": "USA",
    "height": "6-2",
    "weight": 199,
    "lat": 42.4644795,
    "lng": -83.3763219,
    "school": "Harrison",
    "committedTo": "Michigan State",
    "status": "committed",
    "source": "cfbd"
  },
  {
    "id": "cfbd_161764",
    "name": "Lamark Brown",
    "position": "ATH",
    "positionRaw": "ATH",
    "stars": 4,
    "rating": 0.9326,
    "ranking": 136,
    "classYear": 2007,
    "hometown": "Hazelwood",
    "state": "MO",
    "country": "USA",
    "height": "6-3",
    "weight": 215,
    "lat": 38.7861633,
    "lng": -90.3540562,
    "school": "Hazelwood West",
    "committedTo": "Kansas State",
    "status": "committed",
    "source": "cfbd"
  },
  {
    "id": "cfbd_161765",
    "name": "Rolando Melancon",
    "position": "DL",
    "positionRaw": "DT",
    "stars": 4,
    "rating": 0.9326,
    "ranking": 137,
    "classYear": 2007,
    "hometown": "Lutcher",
    "state": "LA",
    "country": "USA",
    "height": "6-2",
    "weight": 260,
    "lat": 30.0404796,
    "lng": -90.6989797,
    "school": "Lutcher",
    "committedTo": "Tennessee",
    "status": "committed",
    "source": "cfbd"
  },
  {
    "id": "cfbd_161766",
    "name": "Bo Williams",
    "position": "RB",
    "positionRaw": "RB",
    "stars": 4,
    "rating": 0.9324,
    "ranking": 138,
    "classYear": 2007,
    "hometown": "Fort Lauderdale",
    "state": "FL",
    "country": "USA",
    "height": "6-1",
    "weight": 205,
    "lat": 26.1223084,
    "lng": -80.1433786,
    "school": "Northeast",
    "committedTo": "Florida",
    "status": "committed",
    "source": "cfbd"
  },
  {
    "id": "cfbd_161767",
    "name": "Clint Brewster",
    "position": "QB",
    "positionRaw": "PRO",
    "stars": 4,
    "rating": 0.9315,
    "ranking": 139,
    "classYear": 2007,
    "hometown": "Denver",
    "state": "CO",
    "country": "USA",
    "height": "6-1",
    "weight": 190,
    "lat": 39.7392364,
    "lng": -104.9848623,
    "school": "Mullen",
    "committedTo": "Minnesota",
    "status": "committed",
    "source": "cfbd"
  },
  {
    "id": "cfbd_161768",
    "name": "Kevin Bryant",
    "position": "OL",
    "positionRaw": "OG",
    "stars": 4,
    "rating": 0.9314,
    "ranking": 140,
    "classYear": 2007,
    "hometown": "Fort Lauderdale",
    "state": "FL",
    "country": "USA",
    "height": "6-6",
    "weight": 380,
    "lat": 26.1223084,
    "lng": -80.1433786,
    "school": "Boyd Anderson",
    "committedTo": "North Carolina",
    "status": "committed",
    "source": "cfbd"
  },
  {
    "id": "cfbd_161769",
    "name": "Lorenzo Edwards",
    "position": "EDGE",
    "positionRaw": "OLB",
    "stars": 4,
    "rating": 0.9311,
    "ranking": 141,
    "classYear": 2007,
    "hometown": "Orlando",
    "state": "FL",
    "country": "USA",
    "height": "6-1",
    "weight": 220,
    "lat": 28.5421109,
    "lng": -81.3790304,
    "school": "Edgewater",
    "committedTo": "Florida",
    "status": "committed",
    "source": "cfbd"
  },
  {
    "id": "cfbd_161770",
    "name": "Ron Brooks",
    "position": "ATH",
    "positionRaw": "ATH",
    "stars": 4,
    "rating": 0.931,
    "ranking": 142,
    "classYear": 2007,
    "hometown": "Irving",
    "state": "TX",
    "country": "USA",
    "height": "6-0",
    "weight": 170,
    "lat": 32.8295183,
    "lng": -96.9442177,
    "school": "MacArthur",
    "committedTo": "LSU",
    "status": "committed",
    "source": "cfbd"
  },
  {
    "id": "cfbd_161771",
    "name": "Chaz Ramsey",
    "position": "OL",
    "positionRaw": "OG",
    "stars": 4,
    "rating": 0.9309,
    "ranking": 143,
    "classYear": 2007,
    "hometown": "Madison",
    "state": "MS",
    "country": "USA",
    "height": "6-3",
    "weight": 285,
    "lat": 32.4618086,
    "lng": -90.1153638,
    "school": "Madison Central",
    "committedTo": "Auburn",
    "status": "committed",
    "source": "cfbd"
  },
  {
    "id": "cfbd_161772",
    "name": "Enrique Davis",
    "position": "RB",
    "positionRaw": "RB",
    "stars": 4,
    "rating": 0.9308,
    "ranking": 144,
    "classYear": 2007,
    "hometown": "Lynn Haven",
    "state": "FL",
    "country": "USA",
    "height": "5-11",
    "weight": 212,
    "lat": 30.2454776,
    "lng": -85.648261,
    "school": "Mosley",
    "committedTo": "Auburn",
    "status": "committed",
    "source": "cfbd"
  },
  {
    "id": "cfbd_161773",
    "name": "Rashad Mason",
    "position": "WR",
    "positionRaw": "WR",
    "stars": 4,
    "rating": 0.9305,
    "ranking": 145,
    "classYear": 2007,
    "hometown": "Nashville",
    "state": "TN",
    "country": "USA",
    "height": "6-6",
    "weight": 215,
    "lat": 36.1622296,
    "lng": -86.7743531,
    "school": "Pearl-Cohn",
    "committedTo": "North Carolina",
    "status": "committed",
    "source": "cfbd"
  },
  {
    "id": "cfbd_161774",
    "name": "Antwane Greenlee",
    "position": "OL",
    "positionRaw": "OT",
    "stars": 4,
    "rating": 0.9305,
    "ranking": 146,
    "classYear": 2007,
    "hometown": "Columbus",
    "state": "GA",
    "country": "USA",
    "height": "6-6",
    "weight": 300,
    "lat": 32.4609764,
    "lng": -84.9877094,
    "school": "Hardaway",
    "committedTo": "Florida State",
    "status": "committed",
    "source": "cfbd"
  },
  {
    "id": "cfbd_161775",
    "name": "Lee Chambers",
    "position": "RB",
    "positionRaw": "RB",
    "stars": 4,
    "rating": 0.93,
    "ranking": 147,
    "classYear": 2007,
    "hometown": "Coffeeville",
    "state": "MS",
    "country": "USA",
    "height": "6-0",
    "weight": 193,
    "lat": 33.9767793,
    "lng": -89.675641,
    "school": "Coffeeville",
    "committedTo": "Miami",
    "status": "committed",
    "source": "cfbd"
  },
  {
    "id": "cfbd_161776",
    "name": "Ahmad Paige",
    "position": "WR",
    "positionRaw": "WR",
    "stars": 4,
    "rating": 0.9297,
    "ranking": 148,
    "classYear": 2007,
    "hometown": "Monroe",
    "state": "LA",
    "country": "USA",
    "height": "6-3",
    "weight": 175,
    "lat": 32.5093109,
    "lng": -92.1193012,
    "school": "Sterlington",
    "committedTo": "Tennessee",
    "status": "committed",
    "source": "cfbd"
  },
  {
    "id": "cfbd_161777",
    "name": "Kyle Hix",
    "position": "OL",
    "positionRaw": "OT",
    "stars": 4,
    "rating": 0.9291,
    "ranking": 149,
    "classYear": 2007,
    "hometown": "Aledo",
    "state": "TX",
    "country": "USA",
    "height": "6-6",
    "weight": 290,
    "lat": 32.69900905,
    "lng": -97.60396629774493,
    "school": "Aledo",
    "committedTo": "Texas",
    "status": "committed",
    "source": "cfbd"
  },
  {
    "id": "cfbd_161778",
    "name": "Niles Paul",
    "position": "WR",
    "positionRaw": "WR",
    "stars": 4,
    "rating": 0.9289,
    "ranking": 150,
    "classYear": 2007,
    "hometown": "Omaha",
    "state": "NE",
    "country": "USA",
    "height": "6-2",
    "weight": 210,
    "lat": 41.2587459,
    "lng": -95.9383758,
    "school": "Omaha North",
    "committedTo": "Nebraska",
    "status": "committed",
    "source": "cfbd"
  },
  {
    "id": "cfbd_161779",
    "name": "Myles Wade",
    "position": "DL",
    "positionRaw": "DT",
    "stars": 4,
    "rating": 0.9287,
    "ranking": 151,
    "classYear": 2007,
    "hometown": "Portland",
    "state": "OR",
    "country": "USA",
    "height": "6-2",
    "weight": 305,
    "lat": 45.5202471,
    "lng": -122.6741949,
    "school": "Central Catholic",
    "committedTo": "Oregon",
    "status": "committed",
    "source": "cfbd"
  },
  {
    "id": "cfbd_161780",
    "name": "Harland Gunn",
    "position": "OL",
    "positionRaw": "OG",
    "stars": 4,
    "rating": 0.9285,
    "ranking": 152,
    "classYear": 2007,
    "hometown": "Omaha",
    "state": "NE",
    "country": "USA",
    "height": "6-2",
    "weight": 300,
    "lat": 41.2587459,
    "lng": -95.9383758,
    "school": "Omaha Northwest",
    "committedTo": "Miami",
    "status": "committed",
    "source": "cfbd"
  },
  {
    "id": "cfbd_161781",
    "name": "Jahvid Best",
    "position": "RB",
    "positionRaw": "RB",
    "stars": 4,
    "rating": 0.928,
    "ranking": 153,
    "classYear": 2007,
    "hometown": "Richmond",
    "state": "CA",
    "country": "USA",
    "height": "5-10",
    "weight": 183,
    "lat": 37.9357576,
    "lng": -122.3477486,
    "school": "Salesian",
    "committedTo": "California",
    "status": "committed",
    "source": "cfbd"
  },
  {
    "id": "cfbd_161782",
    "name": "J'Courtney Williams",
    "position": "EDGE",
    "positionRaw": "OLB",
    "stars": 4,
    "rating": 0.9274,
    "ranking": 154,
    "classYear": 2007,
    "hometown": "Church View",
    "state": "VA",
    "country": "USA",
    "height": "6-4",
    "weight": 215,
    "lat": 37.6776411,
    "lng": -76.6782906,
    "school": "Christchurch School",
    "committedTo": "Virginia",
    "status": "committed",
    "source": "cfbd"
  },
  {
    "id": "cfbd_161783",
    "name": "Jamire Williams",
    "position": "CB",
    "positionRaw": "CB",
    "stars": 4,
    "rating": 0.9268,
    "ranking": 155,
    "classYear": 2007,
    "hometown": "Jacksonville",
    "state": "FL",
    "country": "USA",
    "height": "6-0",
    "weight": 180,
    "lat": 30.3321838,
    "lng": -81.655651,
    "school": "First Coast",
    "committedTo": "South Carolina",
    "status": "committed",
    "source": "cfbd"
  },
  {
    "id": "cfbd_161784",
    "name": "Brandon Gibson",
    "position": "WR",
    "positionRaw": "WR",
    "stars": 4,
    "rating": 0.9268,
    "ranking": 156,
    "classYear": 2007,
    "hometown": "Mobile",
    "state": "AL",
    "country": "USA",
    "height": "6-2",
    "weight": 194,
    "lat": 30.6943566,
    "lng": -88.0430541,
    "school": "UMS-Wright Preparatory School",
    "committedTo": "Alabama",
    "status": "committed",
    "source": "cfbd"
  },
  {
    "id": "cfbd_161785",
    "name": "Jarrett Lee",
    "position": "QB",
    "positionRaw": "PRO",
    "stars": 4,
    "rating": 0.9268,
    "ranking": 157,
    "classYear": 2007,
    "hometown": "Brenham",
    "state": "TX",
    "country": "USA",
    "height": "6-3",
    "weight": 195,
    "lat": 30.1668828,
    "lng": -96.3977442,
    "school": "Brenham",
    "committedTo": "LSU",
    "status": "committed",
    "source": "cfbd"
  },
  {
    "id": "cfbd_161786",
    "name": "Chris Jacobson",
    "position": "OL",
    "positionRaw": "OG",
    "stars": 4,
    "rating": 0.9262,
    "ranking": 158,
    "classYear": 2007,
    "hometown": "Pittsburgh",
    "state": "PA",
    "country": "USA",
    "height": "6-3",
    "weight": 285,
    "lat": 40.4416941,
    "lng": -79.9900861,
    "school": "Keystone Oaks",
    "committedTo": "Pittsburgh",
    "status": "committed",
    "source": "cfbd"
  },
  {
    "id": "cfbd_161787",
    "name": "Chris Forcier",
    "position": "QB",
    "positionRaw": "DUAL",
    "stars": 4,
    "rating": 0.9261,
    "ranking": 159,
    "classYear": 2007,
    "hometown": "Carlsbad",
    "state": "CA",
    "country": "USA",
    "height": "6-3",
    "weight": 180,
    "lat": 33.1580933,
    "lng": -117.3505966,
    "school": "Carlsbad",
    "committedTo": "UCLA",
    "status": "committed",
    "source": "cfbd"
  },
  {
    "id": "cfbd_161788",
    "name": "Robert Elliott",
    "position": "RB",
    "positionRaw": "RB",
    "stars": 4,
    "rating": 0.9255,
    "ranking": 160,
    "classYear": 2007,
    "hometown": "Okolona",
    "state": "MS",
    "country": "USA",
    "height": "6-2",
    "weight": 210,
    "lat": 34.0020146,
    "lng": -88.7547357,
    "school": "Okolona",
    "committedTo": "Mississippi State",
    "status": "committed",
    "source": "cfbd"
  },
  {
    "id": "cfbd_161789",
    "name": "John Elliott",
    "position": "OL",
    "positionRaw": "OT",
    "stars": 4,
    "rating": 0.924,
    "ranking": 161,
    "classYear": 2007,
    "hometown": "East Meadow",
    "state": "NY",
    "country": "USA",
    "height": "6-5",
    "weight": 290,
    "lat": 40.721929599999996,
    "lng": -73.55839696869465,
    "school": "East Meadow",
    "committedTo": "Boston College",
    "status": "committed",
    "source": "cfbd"
  },
  {
    "id": "cfbd_161790",
    "name": "Junior Hemingway",
    "position": "WR",
    "positionRaw": "WR",
    "stars": 4,
    "rating": 0.9239,
    "ranking": 162,
    "classYear": 2007,
    "hometown": "Conway",
    "state": "SC",
    "country": "USA",
    "height": "6-3",
    "weight": 205,
    "lat": 33.8360035,
    "lng": -79.0478143,
    "school": "Conway",
    "committedTo": "Michigan",
    "status": "committed",
    "source": "cfbd"
  },
  {
    "id": "cfbd_161791",
    "name": "Nate Oliver",
    "position": "S",
    "positionRaw": "S",
    "stars": 4,
    "rating": 0.9239,
    "ranking": 163,
    "classYear": 2007,
    "hometown": "Lakewood",
    "state": "OH",
    "country": "USA",
    "height": "6-0",
    "weight": 215,
    "lat": 41.4819932,
    "lng": -81.7981908,
    "school": "St. Edward",
    "committedTo": "Ohio State",
    "status": "committed",
    "source": "cfbd"
  },
  {
    "id": "cfbd_161792",
    "name": "Quintin Richardson",
    "position": "OL",
    "positionRaw": "OT",
    "stars": 4,
    "rating": 0.9237,
    "ranking": 164,
    "classYear": 2007,
    "hometown": "Columbia",
    "state": "SC",
    "country": "USA",
    "height": "6-4",
    "weight": 265,
    "lat": 34.0007493,
    "lng": -81.0343313,
    "school": "Spring Valley",
    "committedTo": "South Carolina",
    "status": "committed",
    "source": "cfbd"
  },
  {
    "id": "cfbd_161793",
    "name": "Michael Reardon",
    "position": "EDGE",
    "positionRaw": "SDE",
    "stars": 4,
    "rating": 0.9232,
    "ranking": 165,
    "classYear": 2007,
    "hometown": "Villa Park",
    "state": "CA",
    "country": "USA",
    "height": "6-6",
    "weight": 260,
    "lat": 33.8147541,
    "lng": -117.8206235,
    "school": "Orange Lutheran",
    "committedTo": "USC",
    "status": "committed",
    "source": "cfbd"
  },
  {
    "id": "cfbd_161794",
    "name": "Ahmard Howard",
    "position": "TE",
    "positionRaw": "TE",
    "stars": 4,
    "rating": 0.9223,
    "ranking": 166,
    "classYear": 2007,
    "hometown": "Brenham",
    "state": "TX",
    "country": "USA",
    "height": "6-4",
    "weight": 225,
    "lat": 30.1668828,
    "lng": -96.3977442,
    "school": "Brenham",
    "committedTo": "Texas",
    "status": "committed",
    "source": "cfbd"
  },
  {
    "id": "cfbd_161795",
    "name": "Shane Vereen",
    "position": "RB",
    "positionRaw": "APB",
    "stars": 4,
    "rating": 0.9222,
    "ranking": 167,
    "classYear": 2007,
    "hometown": "Valencia",
    "state": "CA",
    "country": "USA",
    "height": "5-9",
    "weight": 170,
    "lat": 34.1466768,
    "lng": -117.2725427,
    "school": "Valencia",
    "committedTo": "California",
    "status": "committed",
    "source": "cfbd"
  },
  {
    "id": "cfbd_161796",
    "name": "Ryan Van Bergen",
    "position": "EDGE",
    "positionRaw": "SDE",
    "stars": 4,
    "rating": 0.9222,
    "ranking": 168,
    "classYear": 2007,
    "hometown": "Whitehall",
    "state": "MI",
    "country": "USA",
    "height": "6-5",
    "weight": 260,
    "lat": 43.410011,
    "lng": -86.348679,
    "school": "Whitehall",
    "committedTo": "Michigan",
    "status": "committed",
    "source": "cfbd"
  },
  {
    "id": "cfbd_161797",
    "name": "Chris Izbicki",
    "position": "TE",
    "positionRaw": "TE",
    "stars": 4,
    "rating": 0.922,
    "ranking": 169,
    "classYear": 2007,
    "hometown": "Kirkland",
    "state": "WA",
    "country": "USA",
    "height": "6-4",
    "weight": 240,
    "lat": 47.6859573,
    "lng": -122.1920249,
    "school": "Lake Washington",
    "committedTo": "Washington",
    "status": "committed",
    "source": "cfbd"
  },
  {
    "id": "cfbd_161798",
    "name": "William Cole",
    "position": "ATH",
    "positionRaw": "ATH",
    "stars": 4,
    "rating": 0.9211,
    "ranking": 170,
    "classYear": 2007,
    "hometown": "Cedar Hill",
    "state": "TX",
    "country": "USA",
    "height": "5-10",
    "weight": 165,
    "lat": 32.5888072,
    "lng": -96.9553675,
    "school": "Cedar Hill",
    "committedTo": "Oklahoma State",
    "status": "committed",
    "source": "cfbd"
  },
  {
    "id": "cfbd_161799",
    "name": "Dominique Herald",
    "position": "S",
    "positionRaw": "S",
    "stars": 4,
    "rating": 0.9208,
    "ranking": 171,
    "classYear": 2007,
    "hometown": "Pennington",
    "state": "NJ",
    "country": "USA",
    "height": "5-11",
    "weight": 180,
    "lat": 40.3284403,
    "lng": -74.790718,
    "school": "The Pennington School",
    "committedTo": "Maryland",
    "status": "committed",
    "source": "cfbd"
  },
  {
    "id": "cfbd_161800",
    "name": "Sam Acho",
    "position": "EDGE",
    "positionRaw": "WDE",
    "stars": 4,
    "rating": 0.92,
    "ranking": 172,
    "classYear": 2007,
    "hometown": "Dallas",
    "state": "TX",
    "country": "USA",
    "height": "6-2",
    "weight": 250,
    "lat": 32.7762719,
    "lng": -96.7968559,
    "school": "St. Mark's",
    "committedTo": "Texas",
    "status": "committed",
    "source": "cfbd"
  },
  {
    "id": "cfbd_161801",
    "name": "Ian Williams",
    "position": "DL",
    "positionRaw": "DT",
    "stars": 4,
    "rating": 0.919,
    "ranking": 173,
    "classYear": 2007,
    "hometown": "Longwood",
    "state": "FL",
    "country": "USA",
    "height": "6-2",
    "weight": 294,
    "lat": 28.7007225,
    "lng": -81.34927797143865,
    "school": "Lyman",
    "committedTo": "Notre Dame",
    "status": "committed",
    "source": "cfbd"
  },
  {
    "id": "cfbd_161802",
    "name": "Simi Fili",
    "position": "DL",
    "positionRaw": "DT",
    "stars": 4,
    "rating": 0.9184,
    "ranking": 174,
    "classYear": 2007,
    "hometown": "Salt Lake City",
    "state": "UT",
    "country": "USA",
    "height": "6-2",
    "weight": 330,
    "lat": 40.7596198,
    "lng": -111.8867975,
    "school": "Cottonwood",
    "committedTo": "Oregon",
    "status": "committed",
    "source": "cfbd"
  },
  {
    "id": "cfbd_161803",
    "name": "Chris Perry",
    "position": "EDGE",
    "positionRaw": "SDE",
    "stars": 4,
    "rating": 0.9183,
    "ranking": 175,
    "classYear": 2007,
    "hometown": "Keller",
    "state": "TX",
    "country": "USA",
    "height": "6-4",
    "weight": 286,
    "lat": 32.9299655,
    "lng": -97.2271249,
    "school": "Fossil Ridge",
    "committedTo": "Miami",
    "status": "committed",
    "source": "cfbd"
  },
  {
    "id": "cfbd_161804",
    "name": "Tim Lamb",
    "position": "DL",
    "positionRaw": "DT",
    "stars": 4,
    "rating": 0.9181,
    "ranking": 176,
    "classYear": 2007,
    "hometown": "Tallahassee",
    "state": "FL",
    "country": "USA",
    "height": "6-0",
    "weight": 315,
    "lat": 30.4380832,
    "lng": -84.2809332,
    "school": "Lincoln",
    "committedTo": "Auburn",
    "status": "committed",
    "source": "cfbd"
  },
  {
    "id": "cfbd_161805",
    "name": "Russell Carter",
    "position": "EDGE",
    "positionRaw": "SDE",
    "stars": 4,
    "rating": 0.918,
    "ranking": 177,
    "classYear": 2007,
    "hometown": "Houston",
    "state": "TX",
    "country": "USA",
    "height": "6-3",
    "weight": 230,
    "lat": 29.7589382,
    "lng": -95.3676974,
    "school": "Westbury",
    "committedTo": "Texas",
    "status": "committed",
    "source": "cfbd"
  },
  {
    "id": "cfbd_161806",
    "name": "Joshua Nesbitt",
    "position": "QB",
    "positionRaw": "DUAL",
    "stars": 4,
    "rating": 0.9166,
    "ranking": 178,
    "classYear": 2007,
    "hometown": "Greensboro",
    "state": "GA",
    "country": "USA",
    "height": "6-1",
    "weight": 213,
    "lat": 33.5756831,
    "lng": -83.1823789,
    "school": "Greene County",
    "committedTo": "Georgia Tech",
    "status": "committed",
    "source": "cfbd"
  },
  {
    "id": "cfbd_161807",
    "name": "Akeem Ayers",
    "position": "EDGE",
    "positionRaw": "OLB",
    "stars": 4,
    "rating": 0.9166,
    "ranking": 179,
    "classYear": 2007,
    "hometown": "Los Angeles",
    "state": "CA",
    "country": "USA",
    "height": "6-2",
    "weight": 215,
    "lat": 34.0536909,
    "lng": -118.2427666,
    "school": "Verbum Dei",
    "committedTo": "UCLA",
    "status": "committed",
    "source": "cfbd"
  },
  {
    "id": "cfbd_161808",
    "name": "James Scott",
    "position": "CB",
    "positionRaw": "CB",
    "stars": 4,
    "rating": 0.9163,
    "ranking": 180,
    "classYear": 2007,
    "hometown": "Daytona Beach",
    "state": "FL",
    "country": "USA",
    "height": "5-9",
    "weight": 165,
    "lat": 29.2108147,
    "lng": -81.0228331,
    "school": "Seabreeze",
    "committedTo": "Ohio State",
    "status": "committed",
    "source": "cfbd"
  },
  {
    "id": "cfbd_161809",
    "name": "Michael Ebbitt",
    "position": "EDGE",
    "positionRaw": "SDE",
    "stars": 4,
    "rating": 0.9153,
    "ranking": 181,
    "classYear": 2007,
    "hometown": "Thousand Oaks",
    "state": "CA",
    "country": "USA",
    "height": "6-4",
    "weight": 275,
    "lat": 34.17142715,
    "lng": -118.91058772974445,
    "school": "Oaks Christian",
    "committedTo": "Texas A&M",
    "status": "committed",
    "source": "cfbd"
  },
  {
    "id": "cfbd_161810",
    "name": "Todderick Bajoie",
    "position": "WR",
    "positionRaw": "WR",
    "stars": 4,
    "rating": 0.9146,
    "ranking": 182,
    "classYear": 2007,
    "hometown": "New Roads",
    "state": "LA",
    "country": "USA",
    "height": "6-2",
    "weight": 205,
    "lat": 30.7015741,
    "lng": -91.4362242,
    "school": "Catholic Of Pointe Coupee",
    "committedTo": null,
    "status": "uncommitted",
    "source": "cfbd"
  },
  {
    "id": "cfbd_161811",
    "name": "William Vlachos",
    "position": "OL",
    "positionRaw": "OC",
    "stars": 4,
    "rating": 0.9146,
    "ranking": 183,
    "classYear": 2007,
    "hometown": "Birmingham",
    "state": "AL",
    "country": "USA",
    "height": "6-1",
    "weight": 294,
    "lat": 33.5206824,
    "lng": -86.8024326,
    "school": "Mountain Brook",
    "committedTo": "Alabama",
    "status": "committed",
    "source": "cfbd"
  },
  {
    "id": "cfbd_161812",
    "name": "Chaz Powell",
    "position": "ATH",
    "positionRaw": "ATH",
    "stars": 4,
    "rating": 0.9143,
    "ranking": 184,
    "classYear": 2007,
    "hometown": "New Freedom",
    "state": "PA",
    "country": "USA",
    "height": "6-1",
    "weight": 185,
    "lat": 39.7378811,
    "lng": -76.7013609,
    "school": "Susquehannock",
    "committedTo": "Penn State",
    "status": "committed",
    "source": "cfbd"
  },
  {
    "id": "cfbd_161813",
    "name": "Broderick Green",
    "position": "RB",
    "positionRaw": "RB",
    "stars": 4,
    "rating": 0.9123,
    "ranking": 185,
    "classYear": 2007,
    "hometown": "Little Rock",
    "state": "AR",
    "country": "USA",
    "height": "6-2",
    "weight": 244,
    "lat": 34.7464809,
    "lng": -92.2895948,
    "school": "Pulaski Academy",
    "committedTo": "USC",
    "status": "committed",
    "source": "cfbd"
  },
  {
    "id": "cfbd_161814",
    "name": "John Williams",
    "position": "ATH",
    "positionRaw": "ATH",
    "stars": 4,
    "rating": 0.9117,
    "ranking": 186,
    "classYear": 2007,
    "hometown": "Breaux Bridge",
    "state": "LA",
    "country": "USA",
    "height": "5-11",
    "weight": 175,
    "lat": 30.2735323,
    "lng": -91.8992837,
    "school": "Breaux Bridge",
    "committedTo": "LSU",
    "status": "committed",
    "source": "cfbd"
  },
  {
    "id": "cfbd_161815",
    "name": "Drake Nevis",
    "position": "DL",
    "positionRaw": "DT",
    "stars": 4,
    "rating": 0.9115,
    "ranking": 187,
    "classYear": 2007,
    "hometown": "Marrero",
    "state": "LA",
    "country": "USA",
    "height": "6-2",
    "weight": 290,
    "lat": 29.8993723,
    "lng": -90.1003506,
    "school": "John Ehret",
    "committedTo": "LSU",
    "status": "committed",
    "source": "cfbd"
  },
  {
    "id": "cfbd_161816",
    "name": "J.J. Bass",
    "position": "RB",
    "positionRaw": "RB",
    "stars": 4,
    "rating": 0.9111,
    "ranking": 188,
    "classYear": 2007,
    "hometown": "Longwood",
    "state": "FL",
    "country": "USA",
    "height": "6-1",
    "weight": 210,
    "lat": 28.7007225,
    "lng": -81.34927797143865,
    "school": "Lyman",
    "committedTo": "Iowa State",
    "status": "committed",
    "source": "cfbd"
  },
  {
    "id": "cfbd_161818",
    "name": "Dion LeCorn",
    "position": "S",
    "positionRaw": "S",
    "stars": 4,
    "rating": 0.9078,
    "ranking": 189,
    "classYear": 2007,
    "hometown": "Ocala",
    "state": "FL",
    "country": "USA",
    "height": "5-11",
    "weight": 217,
    "lat": 29.1871986,
    "lng": -82.1400923,
    "school": "Trinity Catholic",
    "committedTo": "South Carolina",
    "status": "committed",
    "source": "cfbd"
  },
  {
    "id": "cfbd_161817",
    "name": "Jaivorio Burkes",
    "position": "OL",
    "positionRaw": "OG",
    "stars": 4,
    "rating": 0.9078,
    "ranking": 189,
    "classYear": 2007,
    "hometown": "Phoenix",
    "state": "AZ",
    "country": "USA",
    "height": "6-5",
    "weight": 311,
    "lat": 33.4484367,
    "lng": -112.0741417,
    "school": "Moon Valley",
    "committedTo": "Nebraska",
    "status": "committed",
    "source": "cfbd"
  },
  {
    "id": "cfbd_161821",
    "name": "Keith Nichol",
    "position": "QB",
    "positionRaw": "DUAL",
    "stars": 4,
    "rating": 0.9044,
    "ranking": 191,
    "classYear": 2007,
    "hometown": "Lowell",
    "state": "MI",
    "country": "USA",
    "height": "6-2",
    "weight": 222,
    "lat": 42.933601,
    "lng": -85.3418551,
    "school": "Lowell",
    "committedTo": null,
    "status": "uncommitted",
    "source": "cfbd"
  },
  {
    "id": "cfbd_161819",
    "name": "Derek Sherrod",
    "position": "OL",
    "positionRaw": "OT",
    "stars": 4,
    "rating": 0.9044,
    "ranking": 191,
    "classYear": 2007,
    "hometown": "Caledonia",
    "state": "MS",
    "country": "USA",
    "height": "6-6",
    "weight": 298,
    "lat": 33.6828918,
    "lng": -88.3244812,
    "school": "Caledonia",
    "committedTo": null,
    "status": "uncommitted",
    "source": "cfbd"
  },
  {
    "id": "cfbd_161820",
    "name": "Cameron Heyward",
    "position": "DL",
    "positionRaw": "DT",
    "stars": 4,
    "rating": 0.9044,
    "ranking": 191,
    "classYear": 2007,
    "hometown": "Suwanee",
    "state": "GA",
    "country": "USA",
    "height": "6-5",
    "weight": 288,
    "lat": 34.0514898,
    "lng": -84.0712997,
    "school": "Peachtree Ridge",
    "committedTo": null,
    "status": "uncommitted",
    "source": "cfbd"
  },
  {
    "id": "cfbd_161822",
    "name": "Malcolm Smith",
    "position": "EDGE",
    "positionRaw": "OLB",
    "stars": 4,
    "rating": 0.9044,
    "ranking": 191,
    "classYear": 2007,
    "hometown": "Woodland Hills",
    "state": "CA",
    "country": "USA",
    "height": "6-2",
    "weight": 200,
    "lat": 34.1684364,
    "lng": -118.6058382,
    "school": "Taft",
    "committedTo": null,
    "status": "uncommitted",
    "source": "cfbd"
  },
  {
    "id": "cfbd_161823",
    "name": "Darris Sawtelle",
    "position": "OL",
    "positionRaw": "OT",
    "stars": 4,
    "rating": 0.9044,
    "ranking": 191,
    "classYear": 2007,
    "hometown": "Bloomfield Hills",
    "state": "MI",
    "country": "USA",
    "height": "6-6",
    "weight": 295,
    "lat": 42.583645,
    "lng": -83.2454883,
    "school": "Brother Rice",
    "committedTo": null,
    "status": "uncommitted",
    "source": "cfbd"
  },
  {
    "id": "cfbd_161824",
    "name": "Matt Summers-Gavin",
    "position": "OL",
    "positionRaw": "OT",
    "stars": 4,
    "rating": 0.9044,
    "ranking": 191,
    "classYear": 2007,
    "hometown": "San Francisco",
    "state": "CA",
    "country": "USA",
    "height": "6-5",
    "weight": 271,
    "lat": 37.7790262,
    "lng": -122.4199061,
    "school": "St. Ignatius College Preparatory",
    "committedTo": null,
    "status": "uncommitted",
    "source": "cfbd"
  },
  {
    "id": "cfbd_161825",
    "name": "Malachi Lewis",
    "position": "ATH",
    "positionRaw": "ATH",
    "stars": 4,
    "rating": 0.9044,
    "ranking": 191,
    "classYear": 2007,
    "hometown": "Oxnard",
    "state": "CA",
    "country": "USA",
    "height": "6-3",
    "weight": 215,
    "lat": 34.1976308,
    "lng": -119.1803818,
    "school": "Rio Mesa",
    "committedTo": null,
    "status": "uncommitted",
    "source": "cfbd"
  },
  {
    "id": "cfbd_161826",
    "name": "Brandon Hicks",
    "position": "EDGE",
    "positionRaw": "OLB",
    "stars": 4,
    "rating": 0.9044,
    "ranking": 191,
    "classYear": 2007,
    "hometown": "Jacksonville",
    "state": "FL",
    "country": "USA",
    "height": "6-2",
    "weight": 228,
    "lat": 30.3321838,
    "lng": -81.655651,
    "school": "Forrest",
    "committedTo": null,
    "status": "uncommitted",
    "source": "cfbd"
  },
  {
    "id": "cfbd_161827",
    "name": "Jermaine McKenzie",
    "position": "WR",
    "positionRaw": "WR",
    "stars": 4,
    "rating": 0.9044,
    "ranking": 191,
    "classYear": 2007,
    "hometown": "Bradenton",
    "state": "FL",
    "country": "USA",
    "height": "6-1",
    "weight": 164,
    "lat": 27.4989278,
    "lng": -82.5748194,
    "school": "Bradenton Preparatory Academy",
    "committedTo": null,
    "status": "uncommitted",
    "source": "cfbd"
  },
  {
    "id": "cfbd_161828",
    "name": "Peter Lalich",
    "position": "QB",
    "positionRaw": "PRO",
    "stars": 4,
    "rating": 0.9044,
    "ranking": 191,
    "classYear": 2007,
    "hometown": "Springfield",
    "state": "VA",
    "country": "USA",
    "height": "6-5",
    "weight": 235,
    "lat": 38.7890522,
    "lng": -77.1870368,
    "school": "West Springfield",
    "committedTo": null,
    "status": "uncommitted",
    "source": "cfbd"
  },
  {
    "id": "cfbd_161829",
    "name": "Todd Campbell",
    "position": "WR",
    "positionRaw": "WR",
    "stars": 4,
    "rating": 0.9014,
    "ranking": 204,
    "classYear": 2007,
    "hometown": "Franklin",
    "state": "TN",
    "country": "USA",
    "height": "6-0",
    "weight": 185,
    "lat": 35.925193,
    "lng": -86.8689365,
    "school": "Franklin",
    "committedTo": null,
    "status": "uncommitted",
    "source": "cfbd"
  },
  {
    "id": "cfbd_161830",
    "name": "David Ross",
    "position": "CB",
    "positionRaw": "CB",
    "stars": 4,
    "rating": 0.9011,
    "ranking": 205,
    "classYear": 2007,
    "hometown": "Compton",
    "state": "CA",
    "country": "USA",
    "height": "6-0",
    "weight": 174,
    "lat": 33.894927,
    "lng": -118.226624,
    "school": "Compton Dominguez",
    "committedTo": null,
    "status": "uncommitted",
    "source": "cfbd"
  },
  {
    "id": "cfbd_161831",
    "name": "Aundre McGaskey",
    "position": "OL",
    "positionRaw": "OG",
    "stars": 4,
    "rating": 0.9011,
    "ranking": 205,
    "classYear": 2007,
    "hometown": "La Marque",
    "state": "TX",
    "country": "USA",
    "height": "6-4",
    "weight": 290,
    "lat": 29.3685674,
    "lng": -94.9713134,
    "school": "La Marque",
    "committedTo": null,
    "status": "uncommitted",
    "source": "cfbd"
  },
  {
    "id": "cfbd_161832",
    "name": "Jason Hannan",
    "position": "OL",
    "positionRaw": "OG",
    "stars": 4,
    "rating": 0.9011,
    "ranking": 205,
    "classYear": 2007,
    "hometown": "Waxahachie",
    "state": "TX",
    "country": "USA",
    "height": "6-4",
    "weight": 277,
    "lat": 32.3944908,
    "lng": -96.8439365,
    "school": "Waxahachie",
    "committedTo": null,
    "status": "uncommitted",
    "source": "cfbd"
  },
  {
    "id": "cfbd_161834",
    "name": "Alex Watkins",
    "position": "EDGE",
    "positionRaw": "OLB",
    "stars": 4,
    "rating": 0.9011,
    "ranking": 205,
    "classYear": 2007,
    "hometown": "Brownsville",
    "state": "TN",
    "country": "USA",
    "height": "6-3",
    "weight": 234,
    "lat": 35.5939671,
    "lng": -89.262291,
    "school": "Haywood",
    "committedTo": null,
    "status": "uncommitted",
    "source": "cfbd"
  },
  {
    "id": "cfbd_161833",
    "name": "Anthony Gildon",
    "position": "CB",
    "positionRaw": "CB",
    "stars": 4,
    "rating": 0.9011,
    "ranking": 205,
    "classYear": 2007,
    "hometown": "Thousand Oaks",
    "state": "CA",
    "country": "USA",
    "height": "5-11",
    "weight": 189,
    "lat": 34.17142715,
    "lng": -118.91058772974445,
    "school": "Oaks Christian",
    "committedTo": null,
    "status": "uncommitted",
    "source": "cfbd"
  },
  {
    "id": "cfbd_161839",
    "name": "Terence Fells-Danzer",
    "position": "ATH",
    "positionRaw": "FB",
    "stars": 4,
    "rating": 0.9,
    "ranking": 210,
    "classYear": 2007,
    "hometown": "Culpeper",
    "state": "VA",
    "country": "USA",
    "height": "6-1",
    "weight": 250,
    "lat": 38.4733823,
    "lng": -77.9961275,
    "school": "Culpeper County",
    "committedTo": null,
    "status": "uncommitted",
    "source": "cfbd"
  },
  {
    "id": "cfbd_161841",
    "name": "Omar Bolden",
    "position": "RB",
    "positionRaw": "APB",
    "stars": 4,
    "rating": 0.9,
    "ranking": 210,
    "classYear": 2007,
    "hometown": "Ontario",
    "state": "CA",
    "country": "USA",
    "height": "5-11",
    "weight": 185,
    "lat": 34.065846,
    "lng": -117.6484304,
    "school": "Colony",
    "committedTo": null,
    "status": "uncommitted",
    "source": "cfbd"
  },
  {
    "id": "cfbd_161843",
    "name": "Brandon Williams",
    "position": "ATH",
    "positionRaw": "ATH",
    "stars": 4,
    "rating": 0.9,
    "ranking": 210,
    "classYear": 2007,
    "hometown": "Beaumont",
    "state": "TX",
    "country": "USA",
    "height": "6-4",
    "weight": 225,
    "lat": 30.0860459,
    "lng": -94.1018461,
    "school": "Beaumont Central",
    "committedTo": null,
    "status": "uncommitted",
    "source": "cfbd"
  },
  {
    "id": "cfbd_161842",
    "name": "Donnie Evege",
    "position": "CB",
    "positionRaw": "CB",
    "stars": 4,
    "rating": 0.9,
    "ranking": 210,
    "classYear": 2007,
    "hometown": "Dayton",
    "state": "OH",
    "country": "USA",
    "height": "5-11",
    "weight": 180,
    "lat": 39.7589478,
    "lng": -84.1916069,
    "school": "Wayne",
    "committedTo": null,
    "status": "uncommitted",
    "source": "cfbd"
  },
  {
    "id": "cfbd_161838",
    "name": "Weslye Saunders",
    "position": "TE",
    "positionRaw": "TE",
    "stars": 4,
    "rating": 0.9,
    "ranking": 210,
    "classYear": 2007,
    "hometown": "Durham",
    "state": "NC",
    "country": "USA",
    "height": "6-6",
    "weight": 270,
    "lat": 35.996653,
    "lng": -78.9018053,
    "school": "Riverside",
    "committedTo": null,
    "status": "uncommitted",
    "source": "cfbd"
  },
  {
    "id": "cfbd_161840",
    "name": "William Yancy",
    "position": "EDGE",
    "positionRaw": "SDE",
    "stars": 4,
    "rating": 0.9,
    "ranking": 210,
    "classYear": 2007,
    "hometown": "Glendale",
    "state": "AZ",
    "country": "USA",
    "height": "6-4",
    "weight": 223,
    "lat": 33.5386858,
    "lng": -112.1859941,
    "school": "Ironwood",
    "committedTo": null,
    "status": "uncommitted",
    "source": "cfbd"
  },
  {
    "id": "cfbd_161835",
    "name": "Jordon Corbin",
    "position": "TE",
    "positionRaw": "TE",
    "stars": 4,
    "rating": 0.9,
    "ranking": 210,
    "classYear": 2007,
    "hometown": "Lakeland",
    "state": "FL",
    "country": "USA",
    "height": "6-5",
    "weight": 235,
    "lat": 28.0394654,
    "lng": -81.9498042,
    "school": "Lakeland",
    "committedTo": null,
    "status": "uncommitted",
    "source": "cfbd"
  },
  {
    "id": "cfbd_161836",
    "name": "C.J. Peake",
    "position": "S",
    "positionRaw": "S",
    "stars": 4,
    "rating": 0.9,
    "ranking": 210,
    "classYear": 2007,
    "hometown": "Dayton",
    "state": "OH",
    "country": "USA",
    "height": "6-2",
    "weight": 216,
    "lat": 39.7589478,
    "lng": -84.1916069,
    "school": "Trotwood-Madison",
    "committedTo": null,
    "status": "uncommitted",
    "source": "cfbd"
  },
  {
    "id": "cfbd_161837",
    "name": "Nick Toon",
    "position": "WR",
    "positionRaw": "WR",
    "stars": 4,
    "rating": 0.9,
    "ranking": 210,
    "classYear": 2007,
    "hometown": "Middleton",
    "state": "WI",
    "country": "USA",
    "height": "6-3",
    "weight": 200,
    "lat": 43.0962919,
    "lng": -89.5119565,
    "school": "Middleton",
    "committedTo": null,
    "status": "uncommitted",
    "source": "cfbd"
  },
  {
    "id": "cfbd_161844",
    "name": "Conrad Obi",
    "position": "EDGE",
    "positionRaw": "SDE",
    "stars": 4,
    "rating": 0.8994,
    "ranking": 219,
    "classYear": 2007,
    "hometown": "Loganville",
    "state": "GA",
    "country": "USA",
    "height": "6-4",
    "weight": 240,
    "lat": 33.8389977,
    "lng": -83.9007382,
    "school": "Grayson",
    "committedTo": null,
    "status": "uncommitted",
    "source": "cfbd"
  },
  {
    "id": "cfbd_161845",
    "name": "Kamar Aiken",
    "position": "ATH",
    "positionRaw": "ATH",
    "stars": 4,
    "rating": 0.8984,
    "ranking": 220,
    "classYear": 2007,
    "hometown": "Hollywood",
    "state": "FL",
    "country": "USA",
    "height": "6-2",
    "weight": 200,
    "lat": 26.0112014,
    "lng": -80.1494901,
    "school": "Chaminade-Madonna",
    "committedTo": null,
    "status": "uncommitted",
    "source": "cfbd"
  },
  {
    "id": "cfbd_161847",
    "name": "Landon Walker",
    "position": "OL",
    "positionRaw": "OT",
    "stars": 4,
    "rating": 0.8978,
    "ranking": 221,
    "classYear": 2007,
    "hometown": "North Wilkesboro",
    "state": "NC",
    "country": "USA",
    "height": "6-6",
    "weight": 310,
    "lat": 36.1584651,
    "lng": -81.1475841,
    "school": "East Wilkes",
    "committedTo": null,
    "status": "uncommitted",
    "source": "cfbd"
  },
  {
    "id": "cfbd_161846",
    "name": "Johnnie Lee Dixon",
    "position": "ATH",
    "positionRaw": "ATH",
    "stars": 4,
    "rating": 0.8978,
    "ranking": 221,
    "classYear": 2007,
    "hometown": "Belle Glade",
    "state": "FL",
    "country": "USA",
    "height": "5-11",
    "weight": 176,
    "lat": 26.6845104,
    "lng": -80.6675577,
    "school": "Glades Central",
    "committedTo": null,
    "status": "uncommitted",
    "source": "cfbd"
  },